{"type":"FeatureCollection","features":[{"type":"Feature","properties":{"StationName":"ZZFRANKLIN","NativeID":"3","Elevation":"265","Jan":"-9999","Feb":"-9999","Mar":"-9999","Apr":"-9999","May":"163","Jun":"125","Jul":"79","Aug":"86","Sep":"129","Oct":"-9999","Nov":"-9999","Dec":"-9999"},"geometry":{"type":"Point","coordinates":[-124.727021,48.970965]}},{"type":"Feature","properties":{"StationName":"ZZZEBALLOS","NativeID":"4","Elevation":"7","Jan":"-9999","Feb":"-9999","Mar":"-9999","Apr":"-9999","May":"223","Jun":"150","Jul":"96","Aug":"111","Sep":"179","Oct":"-9999","Nov":"-9999","Dec":"-9999"},"geometry":{"type":"Point","coordinates":[-126.850895,49.988253]}},{"type":"Feature","properties":{"StationName":"ZZSARITA","NativeID":"8","Elevation":"60","Jan":"-9999","Feb":"-9999","Mar":"-9999","Apr":"-9999","May":"167","Jun":"112","Jul":"79","Aug":"81","Sep":"125","Oct":"-9999","Nov":"-9999","Dec":"-9999"},"geometry":{"type":"Point","coordinates":[-124.971761,48.890263]}},{"type":"Feature","properties":{"StationName":"ZZBR417","NativeID":"9","Elevation":"1","Jan":"-9999","Feb":"-9999","Mar":"-9999","Apr":"-9999","May":"-9999","Jun":"117","Jul":"50","Aug":"-9999","Sep":"-9999","Oct":"-9999","Nov":"-9999","Dec":"-9999"},"geometry":{"type":"Point","coordinates":[-125,48.8]}},{"type":"Feature","properties":{"StationName":"ZZSCOTTCOV","NativeID":"10","Elevation":"10","Jan":"-9999","Feb":"-9999","Mar":"-9999","Apr":"-9999","May":"83","Jun":"93","Jul":"48","Aug":"53","Sep":"89","Oct":"-9999","Nov":"-9999","Dec":"-9999"},"geometry":{"type":"Point","coordinates":[-126.461234,50.765575]}},{"type":"Feature","properties":{"StationName":"SUMMIT","NativeID":"11","Elevation":"857","Jan":"-9999","Feb":"-9999","Mar":"-9999","Apr":"-9999","May":"146","Jun":"105","Jul":"67","Aug":"87","Sep":"135","Oct":"-9999","Nov":"-9999","Dec":"-9999"},"geometry":{"type":"Point","coordinates":[-124.635237,48.932558]}},{"type":"Feature","properties":{"StationName":"ZZKLANAWA","NativeID":"13","Elevation":"138","Jan":"-9999","Feb":"-9999","Mar":"-9999","Apr":"-9999","May":"190","Jun":"123","Jul":"90","Aug":"93","Sep":"136","Oct":"-9999","Nov":"-9999","Dec":"-9999"},"geometry":{"type":"Point","coordinates":[-124.772147,48.820648]}},{"type":"Feature","properties":{"StationName":"ZZWALBRAN","NativeID":"14","Elevation":"415","Jan":"-9999","Feb":"-9999","Mar":"-9999","Apr":"-9999","May":"173","Jun":"122","Jul":"66","Aug":"100","Sep":"116","Oct":"-9999","Nov":"-9999","Dec":"-9999"},"geometry":{"type":"Point","coordinates":[-124.563221,48.653898]}},{"type":"Feature","properties":{"StationName":"ZZRENFREW","NativeID":"16","Elevation":"0","Jan":"-9999","Feb":"-9999","Mar":"-9999","Apr":"-9999","May":"-9999","Jun":"-9999","Jul":"61","Aug":"76","Sep":"105","Oct":"-9999","Nov":"-9999","Dec":"-9999"},"geometry":{"type":"Point","coordinates":[-124.41,48.5783]}},{"type":"Feature","properties":{"StationName":"ZZCAYCUSER","NativeID":"18","Elevation":"184","Jan":"-9999","Feb":"-9999","Mar":"-9999","Apr":"-9999","May":"113","Jun":"83","Jul":"50","Aug":"56","Sep":"121","Oct":"-9999","Nov":"-9999","Dec":"-9999"},"geometry":{"type":"Point","coordinates":[-124.494891,48.801416]}},{"type":"Feature","properties":{"StationName":"MENZIESCAMP","NativeID":"19","Elevation":"438","Jan":"-9999","Feb":"-9999","Mar":"-9999","Apr":"-9999","May":"60","Jun":"60","Jul":"39","Aug":"52","Sep":"63","Oct":"-9999","Nov":"-9999","Dec":"-9999"},"geometry":{"type":"Point","coordinates":[-125.7887,50.0486]}},{"type":"Feature","properties":{"StationName":"ZZGOLDRIVE","NativeID":"20","Elevation":"63","Jan":"-9999","Feb":"-9999","Mar":"-9999","Apr":"-9999","May":"115","Jun":"83","Jul":"51","Aug":"57","Sep":"101","Oct":"-9999","Nov":"-9999","Dec":"-9999"},"geometry":{"type":"Point","coordinates":[-126.052501,49.768592]}},{"type":"Feature","properties":{"StationName":"WOSSCAMP","NativeID":"21","Elevation":"70","Jan":"-9999","Feb":"-9999","Mar":"-9999","Apr":"-9999","May":"77","Jun":"68","Jul":"43","Aug":"66","Sep":"80","Oct":"-9999","Nov":"-9999","Dec":"-9999"},"geometry":{"type":"Point","coordinates":[-126.6,50.2]}},{"type":"Feature","properties":{"StationName":"ZZCOUS","NativeID":"23","Elevation":"455","Jan":"-9999","Feb":"-9999","Mar":"-9999","Apr":"-9999","May":"119","Jun":"72","Jul":"44","Aug":"57","Sep":"84","Oct":"-9999","Nov":"-9999","Dec":"-9999"},"geometry":{"type":"Point","coordinates":[-124.9083,49.2267]}},{"type":"Feature","properties":{"StationName":"ZZCOP","NativeID":"24","Elevation":"7","Jan":"-9999","Feb":"-9999","Mar":"-9999","Apr":"-9999","May":"114","Jun":"80","Jul":"42","Aug":"52","Sep":"76","Oct":"-9999","Nov":"-9999","Dec":"-9999"},"geometry":{"type":"Point","coordinates":[-124.6,49.2]}},{"type":"Feature","properties":{"StationName":"ZZCOPPERCA","NativeID":"25","Elevation":"710","Jan":"-9999","Feb":"-9999","Mar":"-9999","Apr":"-9999","May":"121","Jun":"-9999","Jul":"-9999","Aug":"58","Sep":"83","Oct":"-9999","Nov":"-9999","Dec":"-9999"},"geometry":{"type":"Point","coordinates":[-124.1067,48.9417]}},{"type":"Feature","properties":{"StationName":"ZZVIEW(FD7","NativeID":"29","Elevation":"300","Jan":"-9999","Feb":"-9999","Mar":"-9999","Apr":"-9999","May":"93","Jun":"70","Jul":"48","Aug":"62","Sep":"89","Oct":"-9999","Nov":"-9999","Dec":"-9999"},"geometry":{"type":"Point","coordinates":[-125.3333,49.3883]}},{"type":"Feature","properties":{"StationName":"ZZADAM106","NativeID":"30","Elevation":"300","Jan":"-9999","Feb":"-9999","Mar":"-9999","Apr":"-9999","May":"-9999","Jun":"93","Jul":"-9999","Aug":"-9999","Sep":"-9999","Oct":"-9999","Nov":"-9999","Dec":"-9999"},"geometry":{"type":"Point","coordinates":[-126.044525,50.286392]}},{"type":"Feature","properties":{"StationName":"ZZBOOTL/O","NativeID":"31","Elevation":"320","Jan":"-9999","Feb":"-9999","Mar":"-9999","Apr":"-9999","May":"-9999","Jun":"-9999","Jul":"38","Aug":"41","Sep":"-9999","Oct":"-9999","Nov":"-9999","Dec":"-9999"},"geometry":{"type":"Point","coordinates":[-125.365938,50.031134]}},{"type":"Feature","properties":{"StationName":"ZZHARRISCR","NativeID":"34","Elevation":"213","Jan":"-9999","Feb":"-9999","Mar":"-9999","Apr":"-9999","May":"112","Jun":"81","Jul":"41","Aug":"59","Sep":"86","Oct":"-9999","Nov":"-9999","Dec":"-9999"},"geometry":{"type":"Point","coordinates":[-124.25759,48.641772]}},{"type":"Feature","properties":{"StationName":"ZZWACOLAKE","NativeID":"35","Elevation":"6","Jan":"-9999","Feb":"-9999","Mar":"-9999","Apr":"-9999","May":"80","Jun":"81","Jul":"60","Aug":"61","Sep":"86","Oct":"-9999","Nov":"-9999","Dec":"-9999"},"geometry":{"type":"Point","coordinates":[-126.1,50.2]}},{"type":"Feature","properties":{"StationName":"ZZPASS(CAM","NativeID":"36","Elevation":"974","Jan":"-9999","Feb":"-9999","Mar":"-9999","Apr":"-9999","May":"72","Jun":"58","Jul":"33","Aug":"47","Sep":"51","Oct":"-9999","Nov":"-9999","Dec":"-9999"},"geometry":{"type":"Point","coordinates":[-124.6483,49.2717]}},{"type":"Feature","properties":{"StationName":"BEAVERCREEK","NativeID":"37","Elevation":"100","Jan":"-9999","Feb":"-9999","Mar":"-9999","Apr":"-9999","May":"76","Jun":"51","Jul":"28","Aug":"41","Sep":"55","Oct":"-9999","Nov":"-9999","Dec":"-9999"},"geometry":{"type":"Point","coordinates":[-124.9333,49.3775]}},{"type":"Feature","properties":{"StationName":"ZZCATSEARS","NativeID":"39","Elevation":"50","Jan":"-9999","Feb":"-9999","Mar":"-9999","Apr":"-9999","May":"264","Jun":"211","Jul":"101","Aug":"124","Sep":"218","Oct":"-9999","Nov":"-9999","Dec":"-9999"},"geometry":{"type":"Point","coordinates":[-125.385,49.1933]}},{"type":"Feature","properties":{"StationName":"ZZPYELAKE","NativeID":"41","Elevation":"224","Jan":"-9999","Feb":"-9999","Mar":"-9999","Apr":"-9999","May":"94","Jun":"90","Jul":"47","Aug":"72","Sep":"65","Oct":"-9999","Nov":"-9999","Dec":"-9999"},"geometry":{"type":"Point","coordinates":[-125.5867,50.3117]}},{"type":"Feature","properties":{"StationName":"ZZNANOOSE","NativeID":"43","Elevation":"65","Jan":"-9999","Feb":"-9999","Mar":"-9999","Apr":"-9999","May":"-9999","Jun":"44","Jul":"28","Aug":"36","Sep":"43","Oct":"-9999","Nov":"-9999","Dec":"-9999"},"geometry":{"type":"Point","coordinates":[-124.206304,49.268151]}},{"type":"Feature","properties":{"StationName":"SALTSPRING2","NativeID":"45","Elevation":"34","Jan":"-9999","Feb":"-9999","Mar":"-9999","Apr":"-9999","May":"46","Jun":"34","Jul":"22","Aug":"27","Sep":"39","Oct":"-9999","Nov":"-9999","Dec":"-9999"},"geometry":{"type":"Point","coordinates":[-123.474,48.774]}},{"type":"Feature","properties":{"StationName":"SECHELTORCH","NativeID":"46","Elevation":"75","Jan":"-9999","Feb":"-9999","Mar":"-9999","Apr":"-9999","May":"75","Jun":"53","Jul":"33","Aug":"47","Sep":"43","Oct":"-9999","Nov":"-9999","Dec":"-9999"},"geometry":{"type":"Point","coordinates":[-123.719,49.45]}},{"type":"Feature","properties":{"StationName":"ZZSECHELT","NativeID":"47","Elevation":"100","Jan":"-9999","Feb":"-9999","Mar":"-9999","Apr":"-9999","May":"70","Jun":"63","Jul":"37","Aug":"38","Sep":"60","Oct":"-9999","Nov":"-9999","Dec":"-9999"},"geometry":{"type":"Point","coordinates":[-123.715018,49.458316]}},{"type":"Feature","properties":{"StationName":"ZZM.B.","NativeID":"51","Elevation":"7","Jan":"-9999","Feb":"-9999","Mar":"-9999","Apr":"-9999","May":"61","Jun":"45","Jul":"28","Aug":"34","Sep":"50","Oct":"-9999","Nov":"-9999","Dec":"-9999"},"geometry":{"type":"Point","coordinates":[-124.4,49.2]}},{"type":"Feature","properties":{"StationName":"ZZCAMP","NativeID":"52","Elevation":"1","Jan":"-9999","Feb":"-9999","Mar":"-9999","Apr":"-9999","May":"39","Jun":"34","Jul":"18","Aug":"24","Sep":"36","Oct":"-9999","Nov":"-9999","Dec":"-9999"},"geometry":{"type":"Point","coordinates":[-124.3,49.3]}},{"type":"Feature","properties":{"StationName":"BOWSER","NativeID":"56","Elevation":"184","Jan":"-9999","Feb":"-9999","Mar":"-9999","Apr":"-9999","May":"55","Jun":"45","Jul":"29","Aug":"34","Sep":"53","Oct":"-9999","Nov":"-9999","Dec":"-9999"},"geometry":{"type":"Point","coordinates":[-124.7033,49.4367]}},{"type":"Feature","properties":{"StationName":"CEDAR","NativeID":"59","Elevation":"100","Jan":"-9999","Feb":"-9999","Mar":"-9999","Apr":"-9999","May":"50","Jun":"38","Jul":"20","Aug":"26","Sep":"33","Oct":"-9999","Nov":"-9999","Dec":"-9999"},"geometry":{"type":"Point","coordinates":[-123.875,49.0483]}},{"type":"Feature","properties":{"StationName":"ZZSALTSPRIN","NativeID":"60","Elevation":"150","Jan":"-9999","Feb":"-9999","Mar":"-9999","Apr":"-9999","May":"44","Jun":"37","Jul":"21","Aug":"30","Sep":"39","Oct":"-9999","Nov":"-9999","Dec":"-9999"},"geometry":{"type":"Point","coordinates":[-123.4533,48.7783]}},{"type":"Feature","properties":{"StationName":"ZZSQUAMISH","NativeID":"63","Elevation":"200","Jan":"-9999","Feb":"-9999","Mar":"-9999","Apr":"-9999","May":"-9999","Jun":"67","Jul":"52","Aug":"80","Sep":"95","Oct":"-9999","Nov":"-9999","Dec":"-9999"},"geometry":{"type":"Point","coordinates":[-123.3967,50.1167]}},{"type":"Feature","properties":{"StationName":"ZZGROUSE","NativeID":"65","Elevation":"981","Jan":"-9999","Feb":"-9999","Mar":"-9999","Apr":"-9999","May":"-9999","Jun":"-9999","Jul":"83","Aug":"93","Sep":"120","Oct":"-9999","Nov":"-9999","Dec":"-9999"},"geometry":{"type":"Point","coordinates":[-123.074627,49.379563]}},{"type":"Feature","properties":{"StationName":"BIGSILVER","NativeID":"66","Elevation":"8","Jan":"-9999","Feb":"-9999","Mar":"-9999","Apr":"-9999","May":"94","Jun":"82","Jul":"69","Aug":"66","Sep":"85","Oct":"-9999","Nov":"-9999","Dec":"-9999"},"geometry":{"type":"Point","coordinates":[-121.8596,49.691]}},{"type":"Feature","properties":{"StationName":"HAIGCAMP","NativeID":"67","Elevation":"162","Jan":"-9999","Feb":"-9999","Mar":"-9999","Apr":"-9999","May":"113","Jun":"125","Jul":"64","Aug":"71","Sep":"98","Oct":"-9999","Nov":"-9999","Dec":"-9999"},"geometry":{"type":"Point","coordinates":[-121.492,49.369]}},{"type":"Feature","properties":{"StationName":"ZZLILLOOET","NativeID":"71","Elevation":"250","Jan":"-9999","Feb":"-9999","Mar":"-9999","Apr":"-9999","May":"39","Jun":"36","Jul":"35","Aug":"27","Sep":"46","Oct":"-9999","Nov":"-9999","Dec":"-9999"},"geometry":{"type":"Point","coordinates":[-122.467947,50.195465]}},{"type":"Feature","properties":{"StationName":"UBCRESEARCH","NativeID":"72","Elevation":"98","Jan":"-9999","Feb":"-9999","Mar":"-9999","Apr":"-9999","May":"132","Jun":"95","Jul":"61","Aug":"72","Sep":"91","Oct":"-9999","Nov":"-9999","Dec":"-9999"},"geometry":{"type":"Point","coordinates":[-122.5733,49.265]}},{"type":"Feature","properties":{"StationName":"ZZREDMTN","NativeID":"73","Elevation":"504","Jan":"-9999","Feb":"-9999","Mar":"-9999","Apr":"-9999","May":"154","Jun":"109","Jul":"85","Aug":"72","Sep":"101","Oct":"-9999","Nov":"-9999","Dec":"-9999"},"geometry":{"type":"Point","coordinates":[-122.333475,49.212474]}},{"type":"Feature","properties":{"StationName":"CHILLIWACKN","NativeID":"74","Elevation":"295","Jan":"-9999","Feb":"-9999","Mar":"-9999","Apr":"-9999","May":"83","Jun":"84","Jul":"63","Aug":"57","Sep":"76","Oct":"-9999","Nov":"-9999","Dec":"-9999"},"geometry":{"type":"Point","coordinates":[-121.6633,49.0983]}},{"type":"Feature","properties":{"StationName":"TOBACAMP","NativeID":"75","Elevation":"1","Jan":"-9999","Feb":"-9999","Mar":"-9999","Apr":"-9999","May":"90","Jun":"70","Jul":"75","Aug":"83","Sep":"110","Oct":"-9999","Nov":"-9999","Dec":"-9999"},"geometry":{"type":"Point","coordinates":[-124.073,50.568]}},{"type":"Feature","properties":{"StationName":"ZZSQUAMISH","NativeID":"76","Elevation":"7","Jan":"-9999","Feb":"-9999","Mar":"-9999","Apr":"-9999","May":"102","Jun":"71","Jul":"47","Aug":"56","Sep":"100","Oct":"-9999","Nov":"-9999","Dec":"-9999"},"geometry":{"type":"Point","coordinates":[-123.159515,49.691027]}},{"type":"Feature","properties":{"StationName":"ZZJERVIS","NativeID":"78","Elevation":"480","Jan":"-9999","Feb":"-9999","Mar":"-9999","Apr":"-9999","May":"130","Jun":"114","Jul":"86","Aug":"73","Sep":"104","Oct":"-9999","Nov":"-9999","Dec":"-9999"},"geometry":{"type":"Point","coordinates":[-123.755179,50.116032]}},{"type":"Feature","properties":{"StationName":"ZZKNIGHTIN","NativeID":"79","Elevation":"10","Jan":"-9999","Feb":"-9999","Mar":"-9999","Apr":"-9999","May":"95","Jun":"115","Jul":"56","Aug":"71","Sep":"118","Oct":"-9999","Nov":"-9999","Dec":"-9999"},"geometry":{"type":"Point","coordinates":[-125.6,51.1]}},{"type":"Feature","properties":{"StationName":"ZZCORTESIS","NativeID":"80","Elevation":"70","Jan":"-9999","Feb":"-9999","Mar":"-9999","Apr":"-9999","May":"76","Jun":"62","Jul":"43","Aug":"38","Sep":"-9999","Oct":"-9999","Nov":"-9999","Dec":"-9999"},"geometry":{"type":"Point","coordinates":[-124.986125,50.026186]}},{"type":"Feature","properties":{"StationName":"SCARCREEK","NativeID":"82","Elevation":"50","Jan":"-9999","Feb":"-9999","Mar":"-9999","Apr":"-9999","May":"75","Jun":"58","Jul":"61","Aug":"81","Sep":"83","Oct":"-9999","Nov":"-9999","Dec":"-9999"},"geometry":{"type":"Point","coordinates":[-125.0283,51.19]}},{"type":"Feature","properties":{"StationName":"ZZHOVELBAY","NativeID":"86","Elevation":"850","Jan":"-9999","Feb":"-9999","Mar":"-9999","Apr":"-9999","May":"83","Jun":"74","Jul":"70","Aug":"82","Sep":"112","Oct":"-9999","Nov":"-9999","Dec":"-9999"},"geometry":{"type":"Point","coordinates":[-124.851735,50.632802]}},{"type":"Feature","properties":{"StationName":"ZZTOMBROWN","NativeID":"87","Elevation":"40","Jan":"-9999","Feb":"-9999","Mar":"-9999","Apr":"-9999","May":"-9999","Jun":"-9999","Jul":"51","Aug":"77","Sep":"89","Oct":"-9999","Nov":"-9999","Dec":"-9999"},"geometry":{"type":"Point","coordinates":[-125.808294,50.597834]}},{"type":"Feature","properties":{"StationName":"ZZJUSKATLA","NativeID":"91","Elevation":"490","Jan":"-9999","Feb":"-9999","Mar":"-9999","Apr":"-9999","May":"87","Jun":"71","Jul":"50","Aug":"87","Sep":"123","Oct":"-9999","Nov":"-9999","Dec":"-9999"},"geometry":{"type":"Point","coordinates":[-132.397175,53.581239]}},{"type":"Feature","properties":{"StationName":"HONNA","NativeID":"93","Elevation":"100","Jan":"-9999","Feb":"-9999","Mar":"-9999","Apr":"-9999","May":"82","Jun":"61","Jul":"43","Aug":"68","Sep":"145","Oct":"-9999","Nov":"-9999","Dec":"-9999"},"geometry":{"type":"Point","coordinates":[-132.135,53.255]}},{"type":"Feature","properties":{"StationName":"ZZCOPPER","NativeID":"97","Elevation":"287","Jan":"-9999","Feb":"-9999","Mar":"-9999","Apr":"-9999","May":"88","Jun":"82","Jul":"49","Aug":"73","Sep":"80","Oct":"-9999","Nov":"-9999","Dec":"-9999"},"geometry":{"type":"Point","coordinates":[-131.86,53.15]}},{"type":"Feature","properties":{"StationName":"ZZKITSAULT","NativeID":"98","Elevation":"100","Jan":"-9999","Feb":"-9999","Mar":"-9999","Apr":"-9999","May":"-9999","Jun":"-9999","Jul":"46","Aug":"-9999","Sep":"-9999","Oct":"-9999","Nov":"-9999","Dec":"-9999"},"geometry":{"type":"Point","coordinates":[-129.475,55.4583]}},{"type":"Feature","properties":{"StationName":"ZZFIRVALE","NativeID":"99","Elevation":"100","Jan":"-9999","Feb":"-9999","Mar":"-9999","Apr":"-9999","May":"39","Jun":"40","Jul":"34","Aug":"44","Sep":"93","Oct":"-9999","Nov":"-9999","Dec":"-9999"},"geometry":{"type":"Point","coordinates":[-126.333675,52.439612]}},{"type":"Feature","properties":{"StationName":"MACHMELL(MB","NativeID":"101","Elevation":"366","Jan":"-9999","Feb":"-9999","Mar":"-9999","Apr":"-9999","May":"80","Jun":"83","Jul":"72","Aug":"113","Sep":"105","Oct":"-9999","Nov":"-9999","Dec":"-9999"},"geometry":{"type":"Point","coordinates":[-126.4517,51.5933]}},{"type":"Feature","properties":{"StationName":"ZZKEMANO","NativeID":"104","Elevation":"17","Jan":"-9999","Feb":"-9999","Mar":"-9999","Apr":"-9999","May":"65","Jun":"55","Jul":"56","Aug":"70","Sep":"155","Oct":"-9999","Nov":"-9999","Dec":"-9999"},"geometry":{"type":"Point","coordinates":[-127.9433,53.5633]}},{"type":"Feature","properties":{"StationName":"ROSSWOOD","NativeID":"105","Elevation":"137","Jan":"-9999","Feb":"-9999","Mar":"-9999","Apr":"-9999","May":"42","Jun":"48","Jul":"41","Aug":"55","Sep":"90","Oct":"-9999","Nov":"-9999","Dec":"-9999"},"geometry":{"type":"Point","coordinates":[-128.8583,54.915]}},{"type":"Feature","properties":{"StationName":"KITPARK","NativeID":"106","Elevation":"75","Jan":"-9999","Feb":"-9999","Mar":"-9999","Apr":"-9999","May":"71","Jun":"61","Jul":"51","Aug":"82","Sep":"154","Oct":"-9999","Nov":"-9999","Dec":"-9999"},"geometry":{"type":"Point","coordinates":[-128.5767,54.17]}},{"type":"Feature","properties":{"StationName":"DEASELKFS","NativeID":"108","Elevation":"820","Jan":"-9999","Feb":"-9999","Mar":"-9999","Apr":"-9999","May":"28","Jun":"45","Jul":"70","Aug":"62","Sep":"49","Oct":"-9999","Nov":"-9999","Dec":"-9999"},"geometry":{"type":"Point","coordinates":[-129.982887,58.427585]}},{"type":"Feature","properties":{"StationName":"TELEGRAPHCR","NativeID":"110","Elevation":"382","Jan":"-9999","Feb":"-9999","Mar":"-9999","Apr":"-9999","May":"10","Jun":"18","Jul":"30","Aug":"24","Sep":"38","Oct":"-9999","Nov":"-9999","Dec":"-9999"},"geometry":{"type":"Point","coordinates":[-131.1967,57.9033]}},{"type":"Feature","properties":{"StationName":"ATLIN","NativeID":"111","Elevation":"729","Jan":"-9999","Feb":"-9999","Mar":"-9999","Apr":"-9999","May":"12","Jun":"24","Jul":"29","Aug":"26","Sep":"29","Oct":"-9999","Nov":"-9999","Dec":"-9999"},"geometry":{"type":"Point","coordinates":[-133.6667,59.5833]}},{"type":"Feature","properties":{"StationName":"ISKUT","NativeID":"112","Elevation":"890","Jan":"-9999","Feb":"-9999","Mar":"-9999","Apr":"-9999","May":"26","Jun":"43","Jul":"61","Aug":"52","Sep":"51","Oct":"-9999","Nov":"-9999","Dec":"-9999"},"geometry":{"type":"Point","coordinates":[-130.0083,57.8567]}},{"type":"Feature","properties":{"StationName":"BOBQUINNLK","NativeID":"113","Elevation":"609","Jan":"-9999","Feb":"-9999","Mar":"-9999","Apr":"-9999","May":"35","Jun":"44","Jul":"54","Aug":"72","Sep":"94","Oct":"-9999","Nov":"-9999","Dec":"-9999"},"geometry":{"type":"Point","coordinates":[-130.2533,56.9833]}},{"type":"Feature","properties":{"StationName":"ZZMILLIGAN","NativeID":"116","Elevation":"820","Jan":"-9999","Feb":"-9999","Mar":"-9999","Apr":"-9999","May":"-9999","Jun":"50","Jul":"95","Aug":"66","Sep":"-9999","Oct":"-9999","Nov":"-9999","Dec":"-9999"},"geometry":{"type":"Point","coordinates":[-120.487798,57.436307]}},{"type":"Feature","properties":{"StationName":"SIERRA","NativeID":"117","Elevation":"584","Jan":"-9999","Feb":"-9999","Mar":"-9999","Apr":"-9999","May":"37","Jun":"55","Jul":"79","Aug":"52","Sep":"35","Oct":"-9999","Nov":"-9999","Dec":"-9999"},"geometry":{"type":"Point","coordinates":[-121.3967,58.8381]}},{"type":"Feature","properties":{"StationName":"HELMUT","NativeID":"118","Elevation":"598","Jan":"-9999","Feb":"-9999","Mar":"-9999","Apr":"-9999","May":"28","Jun":"57","Jul":"87","Aug":"70","Sep":"43","Oct":"-9999","Nov":"-9999","Dec":"-9999"},"geometry":{"type":"Point","coordinates":[-120.789,59.421]}},{"type":"Feature","properties":{"StationName":"NELSONFORKS","NativeID":"119","Elevation":"604","Jan":"-9999","Feb":"-9999","Mar":"-9999","Apr":"-9999","May":"58","Jun":"64","Jul":"103","Aug":"66","Sep":"51","Oct":"-9999","Nov":"-9999","Dec":"-9999"},"geometry":{"type":"Point","coordinates":[-124.0985,59.6173]}},{"type":"Feature","properties":{"StationName":"SILVER","NativeID":"120","Elevation":"835","Jan":"-9999","Feb":"-9999","Mar":"-9999","Apr":"-9999","May":"54","Jun":"75","Jul":"102","Aug":"69","Sep":"44","Oct":"-9999","Nov":"-9999","Dec":"-9999"},"geometry":{"type":"Point","coordinates":[-121.297,57.4968]}},{"type":"Feature","properties":{"StationName":"PADDY","NativeID":"121","Elevation":"729","Jan":"-9999","Feb":"-9999","Mar":"-9999","Apr":"-9999","May":"35","Jun":"48","Jul":"92","Aug":"57","Sep":"42","Oct":"-9999","Nov":"-9999","Dec":"-9999"},"geometry":{"type":"Point","coordinates":[-120.2368,57.7818]}},{"type":"Feature","properties":{"StationName":"ZZHALFWAYD","NativeID":"123","Elevation":"750","Jan":"-9999","Feb":"-9999","Mar":"-9999","Apr":"-9999","May":"-9999","Jun":"115","Jul":"74","Aug":"63","Sep":"25","Oct":"-9999","Nov":"-9999","Dec":"-9999"},"geometry":{"type":"Point","coordinates":[-122.381948,56.519641]}},{"type":"Feature","properties":{"StationName":"GRAHAM","NativeID":"124","Elevation":"768","Jan":"-9999","Feb":"-9999","Mar":"-9999","Apr":"-9999","May":"46","Jun":"81","Jul":"84","Aug":"63","Sep":"39","Oct":"-9999","Nov":"-9999","Dec":"-9999"},"geometry":{"type":"Point","coordinates":[-122.4575,56.4347]}},{"type":"Feature","properties":{"StationName":"TOADRIVER","NativeID":"126","Elevation":"711","Jan":"-9999","Feb":"-9999","Mar":"-9999","Apr":"-9999","May":"45","Jun":"68","Jul":"75","Aug":"59","Sep":"38","Oct":"-9999","Nov":"-9999","Dec":"-9999"},"geometry":{"type":"Point","coordinates":[-125.3107,58.8659]}},{"type":"Feature","properties":{"StationName":"TUMBLER(DENI","NativeID":"127","Elevation":"942","Jan":"-9999","Feb":"-9999","Mar":"-9999","Apr":"-9999","May":"43","Jun":"61","Jul":"77","Aug":"53","Sep":"48","Oct":"-9999","Nov":"-9999","Dec":"-9999"},"geometry":{"type":"Point","coordinates":[-120.9341,55.0274]}},{"type":"Feature","properties":{"StationName":"PINKMTN","NativeID":"129","Elevation":"989","Jan":"-9999","Feb":"-9999","Mar":"-9999","Apr":"-9999","May":"46","Jun":"76","Jul":"88","Aug":"63","Sep":"42","Oct":"-9999","Nov":"-9999","Dec":"-9999"},"geometry":{"type":"Point","coordinates":[-122.5577,57.0765]}},{"type":"Feature","properties":{"StationName":"MUSKWA","NativeID":"131","Elevation":"780","Jan":"-9999","Feb":"-9999","Mar":"-9999","Apr":"-9999","May":"55","Jun":"101","Jul":"113","Aug":"78","Sep":"40","Oct":"-9999","Nov":"-9999","Dec":"-9999"},"geometry":{"type":"Point","coordinates":[-123.6163,57.8925]}},{"type":"Feature","properties":{"StationName":"HUDSONHOPE","NativeID":"132","Elevation":"704","Jan":"-9999","Feb":"-9999","Mar":"-9999","Apr":"-9999","May":"42","Jun":"67","Jul":"77","Aug":"55","Sep":"40","Oct":"-9999","Nov":"-9999","Dec":"-9999"},"geometry":{"type":"Point","coordinates":[-121.9902,56.0347]}},{"type":"Feature","properties":{"StationName":"WONOWON","NativeID":"136","Elevation":"967","Jan":"-9999","Feb":"-9999","Mar":"-9999","Apr":"-9999","May":"39","Jun":"84","Jul":"93","Aug":"54","Sep":"33","Oct":"-9999","Nov":"-9999","Dec":"-9999"},"geometry":{"type":"Point","coordinates":[-121.7654,56.7185]}},{"type":"Feature","properties":{"StationName":"ZZWILDLIFE","NativeID":"137","Elevation":"8","Jan":"-9999","Feb":"-9999","Mar":"-9999","Apr":"-9999","May":"33","Jun":"54","Jul":"76","Aug":"-9999","Sep":"-9999","Oct":"-9999","Nov":"-9999","Dec":"-9999"},"geometry":{"type":"Point","coordinates":[-122.3,56.1]}},{"type":"Feature","properties":{"StationName":"REDDEER","NativeID":"138","Elevation":"1306","Jan":"-9999","Feb":"-9999","Mar":"-9999","Apr":"-9999","May":"47","Jun":"66","Jul":"91","Aug":"75","Sep":"60","Oct":"-9999","Nov":"-9999","Dec":"-9999"},"geometry":{"type":"Point","coordinates":[-120.5762,54.633]}},{"type":"Feature","properties":{"StationName":"ZZSUKUNKA","NativeID":"139","Elevation":"780","Jan":"-9999","Feb":"-9999","Mar":"-9999","Apr":"-9999","May":"-9999","Jun":"68","Jul":"62","Aug":"56","Sep":"92","Oct":"-9999","Nov":"-9999","Dec":"-9999"},"geometry":{"type":"Point","coordinates":[-121.916053,55.128798]}},{"type":"Feature","properties":{"StationName":"LEMORAY","NativeID":"140","Elevation":"757","Jan":"-9999","Feb":"-9999","Mar":"-9999","Apr":"-9999","May":"49","Jun":"66","Jul":"63","Aug":"54","Sep":"61","Oct":"-9999","Nov":"-9999","Dec":"-9999"},"geometry":{"type":"Point","coordinates":[-122.5171,55.525]}},{"type":"Feature","properties":{"StationName":"MANSON","NativeID":"141","Elevation":"1047","Jan":"-9999","Feb":"-9999","Mar":"-9999","Apr":"-9999","May":"46","Jun":"66","Jul":"64","Aug":"47","Sep":"49","Oct":"-9999","Nov":"-9999","Dec":"-9999"},"geometry":{"type":"Point","coordinates":[-124.232,55.5799]}},{"type":"Feature","properties":{"StationName":"TABLERIVER","NativeID":"144","Elevation":"760","Jan":"-9999","Feb":"-9999","Mar":"-9999","Apr":"-9999","May":"56","Jun":"74","Jul":"74","Aug":"69","Sep":"73","Oct":"-9999","Nov":"-9999","Dec":"-9999"},"geometry":{"type":"Point","coordinates":[-122.2732,54.7159]}},{"type":"Feature","properties":{"StationName":"INGENIKAPT","NativeID":"145","Elevation":"1213","Jan":"-9999","Feb":"-9999","Mar":"-9999","Apr":"-9999","May":"28","Jun":"48","Jul":"48","Aug":"44","Sep":"37","Oct":"-9999","Nov":"-9999","Dec":"-9999"},"geometry":{"type":"Point","coordinates":[-125.176,56.9777]}},{"type":"Feature","properties":{"StationName":"FORTSTJAME","NativeID":"146","Elevation":"750","Jan":"-9999","Feb":"-9999","Mar":"-9999","Apr":"-9999","May":"32","Jun":"46","Jul":"44","Aug":"48","Sep":"35","Oct":"-9999","Nov":"-9999","Dec":"-9999"},"geometry":{"type":"Point","coordinates":[-124.261,54.3941]}},{"type":"Feature","properties":{"StationName":"BLACKPINE","NativeID":"148","Elevation":"1126","Jan":"-9999","Feb":"-9999","Mar":"-9999","Apr":"-9999","May":"44","Jun":"60","Jul":"60","Aug":"48","Sep":"37","Oct":"-9999","Nov":"-9999","Dec":"-9999"},"geometry":{"type":"Point","coordinates":[-125.3679,56.3188]}},{"type":"Feature","properties":{"StationName":"BEARLAKE","NativeID":"149","Elevation":"739","Jan":"-9999","Feb":"-9999","Mar":"-9999","Apr":"-9999","May":"43","Jun":"57","Jul":"58","Aug":"52","Sep":"51","Oct":"-9999","Nov":"-9999","Dec":"-9999"},"geometry":{"type":"Point","coordinates":[-122.691,54.5094]}},{"type":"Feature","properties":{"StationName":"ZZKALDERLA","NativeID":"150","Elevation":"1030","Jan":"-9999","Feb":"-9999","Mar":"-9999","Apr":"-9999","May":"-9999","Jun":"69","Jul":"62","Aug":"43","Sep":"57","Oct":"-9999","Nov":"-9999","Dec":"-9999"},"geometry":{"type":"Point","coordinates":[-124.211468,54.974749]}},{"type":"Feature","properties":{"StationName":"NABESHE","NativeID":"151","Elevation":"1108","Jan":"-9999","Feb":"-9999","Mar":"-9999","Apr":"-9999","May":"22","Jun":"59","Jul":"61","Aug":"59","Sep":"54","Oct":"-9999","Nov":"-9999","Dec":"-9999"},"geometry":{"type":"Point","coordinates":[-123.3656,56.3643]}},{"type":"Feature","properties":{"StationName":"SIFTON","NativeID":"152","Elevation":"985","Jan":"-9999","Feb":"-9999","Mar":"-9999","Apr":"-9999","May":"36","Jun":"46","Jul":"57","Aug":"53","Sep":"44","Oct":"-9999","Nov":"-9999","Dec":"-9999"},"geometry":{"type":"Point","coordinates":[-126.1168,57.8518]}},{"type":"Feature","properties":{"StationName":"MCLEODLAKE","NativeID":"153","Elevation":"915","Jan":"-9999","Feb":"-9999","Mar":"-9999","Apr":"-9999","May":"47","Jun":"53","Jul":"54","Aug":"50","Sep":"56","Oct":"-9999","Nov":"-9999","Dec":"-9999"},"geometry":{"type":"Point","coordinates":[-123.0773,54.7259]}},{"type":"Feature","properties":{"StationName":"WITCH","NativeID":"154","Elevation":"1030","Jan":"-9999","Feb":"-9999","Mar":"-9999","Apr":"-9999","May":"-9999","Jun":"67","Jul":"50","Aug":"54","Sep":"54","Oct":"-9999","Nov":"-9999","Dec":"-9999"},"geometry":{"type":"Point","coordinates":[-124.265,55.023]}},{"type":"Feature","properties":{"StationName":"MACKENZIEFS","NativeID":"155","Elevation":"690","Jan":"-9999","Feb":"-9999","Mar":"-9999","Apr":"-9999","May":"39","Jun":"52","Jul":"60","Aug":"54","Sep":"54","Oct":"-9999","Nov":"-9999","Dec":"-9999"},"geometry":{"type":"Point","coordinates":[-123.1347,55.3042]}},{"type":"Feature","properties":{"StationName":"SUSTUT","NativeID":"156","Elevation":"871","Jan":"-9999","Feb":"-9999","Mar":"-9999","Apr":"-9999","May":"40","Jun":"61","Jul":"63","Aug":"71","Sep":"72","Oct":"-9999","Nov":"-9999","Dec":"-9999"},"geometry":{"type":"Point","coordinates":[-127.0339,56.3287]}},{"type":"Feature","properties":{"StationName":"VANDERHOOF","NativeID":"158","Elevation":"678","Jan":"-9999","Feb":"-9999","Mar":"-9999","Apr":"-9999","May":"24","Jun":"44","Jul":"46","Aug":"41","Sep":"35","Oct":"-9999","Nov":"-9999","Dec":"-9999"},"geometry":{"type":"Point","coordinates":[-124.0102,54.0555]}},{"type":"Feature","properties":{"StationName":"NORTHCHILCO","NativeID":"159","Elevation":"850","Jan":"-9999","Feb":"-9999","Mar":"-9999","Apr":"-9999","May":"37","Jun":"49","Jul":"50","Aug":"46","Sep":"46","Oct":"-9999","Nov":"-9999","Dec":"-9999"},"geometry":{"type":"Point","coordinates":[-123.7541,54.1546]}},{"type":"Feature","properties":{"StationName":"GRASSYPLAIN","NativeID":"161","Elevation":"944","Jan":"-9999","Feb":"-9999","Mar":"-9999","Apr":"-9999","May":"31","Jun":"55","Jul":"45","Aug":"35","Sep":"39","Oct":"-9999","Nov":"-9999","Dec":"-9999"},"geometry":{"type":"Point","coordinates":[-125.8667,53.9467]}},{"type":"Feature","properties":{"StationName":"HOUSTON(DUNG","NativeID":"162","Elevation":"608","Jan":"-9999","Feb":"-9999","Mar":"-9999","Apr":"-9999","May":"24","Jun":"46","Jul":"36","Aug":"34","Sep":"31","Oct":"-9999","Nov":"-9999","Dec":"-9999"},"geometry":{"type":"Point","coordinates":[-126.6267,54.4117]}},{"type":"Feature","properties":{"StationName":"LOVELLCOVE","NativeID":"163","Elevation":"990","Jan":"-9999","Feb":"-9999","Mar":"-9999","Apr":"-9999","May":"55","Jun":"74","Jul":"62","Aug":"67","Sep":"61","Oct":"-9999","Nov":"-9999","Dec":"-9999"},"geometry":{"type":"Point","coordinates":[-126.0513,55.6885]}},{"type":"Feature","properties":{"StationName":"EUTSUK","NativeID":"164","Elevation":"1036","Jan":"-9999","Feb":"-9999","Mar":"-9999","Apr":"-9999","May":"12","Jun":"33","Jul":"44","Aug":"39","Sep":"25","Oct":"-9999","Nov":"-9999","Dec":"-9999"},"geometry":{"type":"Point","coordinates":[-126.17,53.27]}},{"type":"Feature","properties":{"StationName":"MOOSELAKE","NativeID":"165","Elevation":"1109","Jan":"-9999","Feb":"-9999","Mar":"-9999","Apr":"-9999","May":"37","Jun":"65","Jul":"47","Aug":"43","Sep":"41","Oct":"-9999","Nov":"-9999","Dec":"-9999"},"geometry":{"type":"Point","coordinates":[-125.4122,53.0715]}},{"type":"Feature","properties":{"StationName":"KLUSKUS","NativeID":"166","Elevation":"1137","Jan":"-9999","Feb":"-9999","Mar":"-9999","Apr":"-9999","May":"36","Jun":"63","Jul":"47","Aug":"48","Sep":"49","Oct":"-9999","Nov":"-9999","Dec":"-9999"},"geometry":{"type":"Point","coordinates":[-124.5121,53.3831]}},{"type":"Feature","properties":{"StationName":"AUGIERLAKE","NativeID":"167","Elevation":"900","Jan":"-9999","Feb":"-9999","Mar":"-9999","Apr":"-9999","May":"34","Jun":"54","Jul":"50","Aug":"43","Sep":"40","Oct":"-9999","Nov":"-9999","Dec":"-9999"},"geometry":{"type":"Point","coordinates":[-125.52,54.3633]}},{"type":"Feature","properties":{"StationName":"UPPERFULTON","NativeID":"169","Elevation":"900","Jan":"-9999","Feb":"-9999","Mar":"-9999","Apr":"-9999","May":"41","Jun":"60","Jul":"54","Aug":"49","Sep":"53","Oct":"-9999","Nov":"-9999","Dec":"-9999"},"geometry":{"type":"Point","coordinates":[-126.8,55.0333]}},{"type":"Feature","properties":{"StationName":"EASTOOTSA","NativeID":"170","Elevation":"1089","Jan":"-9999","Feb":"-9999","Mar":"-9999","Apr":"-9999","May":"26","Jun":"64","Jul":"49","Aug":"42","Sep":"42","Oct":"-9999","Nov":"-9999","Dec":"-9999"},"geometry":{"type":"Point","coordinates":[-125.7717,53.5017]}},{"type":"Feature","properties":{"StationName":"LEOCREEK","NativeID":"171","Elevation":"915","Jan":"-9999","Feb":"-9999","Mar":"-9999","Apr":"-9999","May":"45","Jun":"53","Jul":"53","Aug":"54","Sep":"39","Oct":"-9999","Nov":"-9999","Dec":"-9999"},"geometry":{"type":"Point","coordinates":[-125.4774,55.0818]}},{"type":"Feature","properties":{"StationName":"NILKITKWA","NativeID":"172","Elevation":"978","Jan":"-9999","Feb":"-9999","Mar":"-9999","Apr":"-9999","May":"49","Jun":"71","Jul":"71","Aug":"69","Sep":"61","Oct":"-9999","Nov":"-9999","Dec":"-9999"},"geometry":{"type":"Point","coordinates":[-126.5783,55.5533]}},{"type":"Feature","properties":{"StationName":"NORTHBABINE","NativeID":"173","Elevation":"951","Jan":"-9999","Feb":"-9999","Mar":"-9999","Apr":"-9999","May":"52","Jun":"66","Jul":"58","Aug":"54","Sep":"50","Oct":"-9999","Nov":"-9999","Dec":"-9999"},"geometry":{"type":"Point","coordinates":[-126.2117,55.1367]}},{"type":"Feature","properties":{"StationName":"BEDNESTI","NativeID":"175","Elevation":"858","Jan":"-9999","Feb":"-9999","Mar":"-9999","Apr":"-9999","May":"37","Jun":"52","Jul":"59","Aug":"51","Sep":"45","Oct":"-9999","Nov":"-9999","Dec":"-9999"},"geometry":{"type":"Point","coordinates":[-123.3233,53.8654]}},{"type":"Feature","properties":{"StationName":"PEDEN","NativeID":"178","Elevation":"747","Jan":"-9999","Feb":"-9999","Mar":"-9999","Apr":"-9999","May":"27","Jun":"48","Jul":"45","Aug":"29","Sep":"38","Oct":"-9999","Nov":"-9999","Dec":"-9999"},"geometry":{"type":"Point","coordinates":[-126.5217,53.9867]}},{"type":"Feature","properties":{"StationName":"NADINA","NativeID":"179","Elevation":"954","Jan":"-9999","Feb":"-9999","Mar":"-9999","Apr":"-9999","May":"34","Jun":"51","Jul":"40","Aug":"35","Sep":"49","Oct":"-9999","Nov":"-9999","Dec":"-9999"},"geometry":{"type":"Point","coordinates":[-126.9278,53.9425]}},{"type":"Feature","properties":{"StationName":"MCBRIDELAKE","NativeID":"180","Elevation":"815","Jan":"-9999","Feb":"-9999","Mar":"-9999","Apr":"-9999","May":"21","Jun":"37","Jul":"32","Aug":"33","Sep":"61","Oct":"-9999","Nov":"-9999","Dec":"-9999"},"geometry":{"type":"Point","coordinates":[-127.4017,54.07]}},{"type":"Feature","properties":{"StationName":"BURNSLAKE8","NativeID":"181","Elevation":"830","Jan":"-9999","Feb":"-9999","Mar":"-9999","Apr":"-9999","May":"39","Jun":"58","Jul":"53","Aug":"40","Sep":"52","Oct":"-9999","Nov":"-9999","Dec":"-9999"},"geometry":{"type":"Point","coordinates":[-125.755,54.2567]}},{"type":"Feature","properties":{"StationName":"GANOKWA","NativeID":"182","Elevation":"855","Jan":"-9999","Feb":"-9999","Mar":"-9999","Apr":"-9999","May":"39","Jun":"61","Jul":"46","Aug":"44","Sep":"43","Oct":"-9999","Nov":"-9999","Dec":"-9999"},"geometry":{"type":"Point","coordinates":[-126.9483,54.805]}},{"type":"Feature","properties":{"StationName":"ZZPARROTTL","NativeID":"183","Elevation":"1259","Jan":"-9999","Feb":"-9999","Mar":"-9999","Apr":"-9999","May":"-9999","Jun":"-9999","Jul":"-9999","Aug":"41","Sep":"54","Oct":"-9999","Nov":"-9999","Dec":"-9999"},"geometry":{"type":"Point","coordinates":[-126.385,54.0183]}},{"type":"Feature","properties":{"StationName":"ZZHUDTALAK","NativeID":"185","Elevation":"850","Jan":"-9999","Feb":"-9999","Mar":"-9999","Apr":"-9999","May":"36","Jun":"63","Jul":"62","Aug":"44","Sep":"50","Oct":"-9999","Nov":"-9999","Dec":"-9999"},"geometry":{"type":"Point","coordinates":[-122.982283,53.653543]}},{"type":"Feature","properties":{"StationName":"HIXON","NativeID":"187","Elevation":"615","Jan":"-9999","Feb":"-9999","Mar":"-9999","Apr":"-9999","May":"44","Jun":"71","Jul":"72","Aug":"46","Sep":"55","Oct":"-9999","Nov":"-9999","Dec":"-9999"},"geometry":{"type":"Point","coordinates":[-122.591,53.4265]}},{"type":"Feature","properties":{"StationName":"ZZCOTTONWOO","NativeID":"188","Elevation":"780","Jan":"-9999","Feb":"-9999","Mar":"-9999","Apr":"-9999","May":"-9999","Jun":"62","Jul":"77","Aug":"43","Sep":"-9999","Oct":"-9999","Nov":"-9999","Dec":"-9999"},"geometry":{"type":"Point","coordinates":[-122.166797,53.053232]}},{"type":"Feature","properties":{"StationName":"CHILAKO","NativeID":"189","Elevation":"814","Jan":"-9999","Feb":"-9999","Mar":"-9999","Apr":"-9999","May":"34","Jun":"59","Jul":"45","Aug":"41","Sep":"33","Oct":"-9999","Nov":"-9999","Dec":"-9999"},"geometry":{"type":"Point","coordinates":[-123.6092,53.4937]}},{"type":"Feature","properties":{"StationName":"JERRY","NativeID":"190","Elevation":"997","Jan":"-9999","Feb":"-9999","Mar":"-9999","Apr":"-9999","May":"65","Jun":"77","Jul":"69","Aug":"55","Sep":"66","Oct":"-9999","Nov":"-9999","Dec":"-9999"},"geometry":{"type":"Point","coordinates":[-122.1062,53.5266]}},{"type":"Feature","properties":{"StationName":"MCGREGOR","NativeID":"191","Elevation":"638","Jan":"-9999","Feb":"-9999","Mar":"-9999","Apr":"-9999","May":"70","Jun":"81","Jul":"83","Aug":"70","Sep":"79","Oct":"-9999","Nov":"-9999","Dec":"-9999"},"geometry":{"type":"Point","coordinates":[-121.8266,54.0778]}},{"type":"Feature","properties":{"StationName":"MCGREGOR2","NativeID":"192","Elevation":"975","Jan":"-9999","Feb":"-9999","Mar":"-9999","Apr":"-9999","May":"60","Jun":"75","Jul":"95","Aug":"78","Sep":"107","Oct":"-9999","Nov":"-9999","Dec":"-9999"},"geometry":{"type":"Point","coordinates":[-120.6361,53.9292]}},{"type":"Feature","properties":{"StationName":"BOWRONHAGGE","NativeID":"193","Elevation":"945","Jan":"-9999","Feb":"-9999","Mar":"-9999","Apr":"-9999","May":"71","Jun":"79","Jul":"85","Aug":"69","Sep":"81","Oct":"-9999","Nov":"-9999","Dec":"-9999"},"geometry":{"type":"Point","coordinates":[-121.5589,53.4632]}},{"type":"Feature","properties":{"StationName":"VALEMOUNT1","NativeID":"194","Elevation":"797","Jan":"-9999","Feb":"-9999","Mar":"-9999","Apr":"-9999","May":"31","Jun":"44","Jul":"54","Aug":"44","Sep":"40","Oct":"-9999","Nov":"-9999","Dec":"-9999"},"geometry":{"type":"Point","coordinates":[-119.2973,52.87]}},{"type":"Feature","properties":{"StationName":"MCBRIDE","NativeID":"195","Elevation":"716","Jan":"-9999","Feb":"-9999","Mar":"-9999","Apr":"-9999","May":"33","Jun":"46","Jul":"62","Aug":"53","Sep":"50","Oct":"-9999","Nov":"-9999","Dec":"-9999"},"geometry":{"type":"Point","coordinates":[-120.1522,53.295]}},{"type":"Feature","properties":{"StationName":"ZZSHERE","NativeID":"196","Elevation":"770","Jan":"-9999","Feb":"-9999","Mar":"-9999","Apr":"-9999","May":"32","Jun":"48","Jul":"48","Aug":"61","Sep":"43","Oct":"-9999","Nov":"-9999","Dec":"-9999"},"geometry":{"type":"Point","coordinates":[-119.571035,53.019554]}},{"type":"Feature","properties":{"StationName":"ZZLOOS","NativeID":"197","Elevation":"770","Jan":"-9999","Feb":"-9999","Mar":"-9999","Apr":"-9999","May":"56","Jun":"83","Jul":"91","Aug":"80","Sep":"73","Oct":"-9999","Nov":"-9999","Dec":"-9999"},"geometry":{"type":"Point","coordinates":[-120.713741,53.591726]}},{"type":"Feature","properties":{"StationName":"CATFISH","NativeID":"199","Elevation":"866","Jan":"-9999","Feb":"-9999","Mar":"-9999","Apr":"-9999","May":"57","Jun":"80","Jul":"102","Aug":"79","Sep":"84","Oct":"-9999","Nov":"-9999","Dec":"-9999"},"geometry":{"type":"Point","coordinates":[-120.8567,53.5765]}},{"type":"Feature","properties":{"StationName":"VALEMOUNT2","NativeID":"200","Elevation":"1195","Jan":"-9999","Feb":"-9999","Mar":"-9999","Apr":"-9999","May":"54","Jun":"62","Jul":"75","Aug":"72","Sep":"64","Oct":"-9999","Nov":"-9999","Dec":"-9999"},"geometry":{"type":"Point","coordinates":[-119.3148,52.7881]}},{"type":"Feature","properties":{"StationName":"HOLMES","NativeID":"201","Elevation":"1179","Jan":"-9999","Feb":"-9999","Mar":"-9999","Apr":"-9999","May":"42","Jun":"64","Jul":"98","Aug":"71","Sep":"66","Oct":"-9999","Nov":"-9999","Dec":"-9999"},"geometry":{"type":"Point","coordinates":[-119.7132,53.3454]}},{"type":"Feature","properties":{"StationName":"TONQUIN-PAR","NativeID":"202","Elevation":"1667","Jan":"-9999","Feb":"-9999","Mar":"-9999","Apr":"-9999","May":"42","Jun":"62","Jul":"64","Aug":"54","Sep":"50","Oct":"-9999","Nov":"-9999","Dec":"-9999"},"geometry":{"type":"Point","coordinates":[-118.4701,52.7027]}},{"type":"Feature","properties":{"StationName":"ZZBEGBIEL/","NativeID":"204","Elevation":"1250","Jan":"-9999","Feb":"-9999","Mar":"-9999","Apr":"-9999","May":"-9999","Jun":"52","Jul":"53","Aug":"40","Sep":"-9999","Oct":"-9999","Nov":"-9999","Dec":"-9999"},"geometry":{"type":"Point","coordinates":[-121.366764,51.475799]}},{"type":"Feature","properties":{"StationName":"TAUTRI","NativeID":"206","Elevation":"1085","Jan":"-9999","Feb":"-9999","Mar":"-9999","Apr":"-9999","May":"31","Jun":"59","Jul":"51","Aug":"43","Sep":"27","Oct":"-9999","Nov":"-9999","Dec":"-9999"},"geometry":{"type":"Point","coordinates":[-123.25,52.535]}},{"type":"Feature","properties":{"StationName":"TATLALAKE","NativeID":"208","Elevation":"945","Jan":"-9999","Feb":"-9999","Mar":"-9999","Apr":"-9999","May":"24","Jun":"40","Jul":"28","Aug":"30","Sep":"19","Oct":"-9999","Nov":"-9999","Dec":"-9999"},"geometry":{"type":"Point","coordinates":[-124.605,51.9067]}},{"type":"Feature","properties":{"StationName":"ALEXISCREEK","NativeID":"209","Elevation":"791","Jan":"-9999","Feb":"-9999","Mar":"-9999","Apr":"-9999","May":"22","Jun":"50","Jul":"36","Aug":"29","Sep":"20","Oct":"-9999","Nov":"-9999","Dec":"-9999"},"geometry":{"type":"Point","coordinates":[-123.2717,52.0767]}},{"type":"Feature","properties":{"StationName":"RISKECREEK","NativeID":"210","Elevation":"884","Jan":"-9999","Feb":"-9999","Mar":"-9999","Apr":"-9999","May":"27","Jun":"47","Jul":"43","Aug":"37","Sep":"25","Oct":"-9999","Nov":"-9999","Dec":"-9999"},"geometry":{"type":"Point","coordinates":[-122.51,51.96]}},{"type":"Feature","properties":{"StationName":"NAZKO","NativeID":"211","Elevation":"910","Jan":"-9999","Feb":"-9999","Mar":"-9999","Apr":"-9999","May":"34","Jun":"61","Jul":"56","Aug":"44","Sep":"39","Oct":"-9999","Nov":"-9999","Dec":"-9999"},"geometry":{"type":"Point","coordinates":[-123.5958,52.9575]}},{"type":"Feature","properties":{"StationName":"PLACELK.","NativeID":"212","Elevation":"1065","Jan":"-9999","Feb":"-9999","Mar":"-9999","Apr":"-9999","May":"37","Jun":"47","Jul":"45","Aug":"33","Sep":"33","Oct":"-9999","Nov":"-9999","Dec":"-9999"},"geometry":{"type":"Point","coordinates":[-122,51.8167]}},{"type":"Feature","properties":{"StationName":"ANAHIMLAKE","NativeID":"213","Elevation":"1096","Jan":"-9999","Feb":"-9999","Mar":"-9999","Apr":"-9999","May":"25","Jun":"40","Jul":"36","Aug":"31","Sep":"26","Oct":"-9999","Nov":"-9999","Dec":"-9999"},"geometry":{"type":"Point","coordinates":[-125.3033,52.4567]}},{"type":"Feature","properties":{"StationName":"ZZKLEENAKL","NativeID":"214","Elevation":"945","Jan":"-9999","Feb":"-9999","Mar":"-9999","Apr":"-9999","May":"22","Jun":"29","Jul":"35","Aug":"21","Sep":"20","Oct":"-9999","Nov":"-9999","Dec":"-9999"},"geometry":{"type":"Point","coordinates":[-124.88562,51.953035]}},{"type":"Feature","properties":{"StationName":"NEMIAH","NativeID":"216","Elevation":"1220","Jan":"-9999","Feb":"-9999","Mar":"-9999","Apr":"-9999","May":"33","Jun":"42","Jul":"29","Aug":"36","Sep":"22","Oct":"-9999","Nov":"-9999","Dec":"-9999"},"geometry":{"type":"Point","coordinates":[-123.8183,51.48]}},{"type":"Feature","properties":{"StationName":"LONEBUTTE","NativeID":"218","Elevation":"1158","Jan":"-9999","Feb":"-9999","Mar":"-9999","Apr":"-9999","May":"46","Jun":"59","Jul":"47","Aug":"37","Sep":"38","Oct":"-9999","Nov":"-9999","Dec":"-9999"},"geometry":{"type":"Point","coordinates":[-121.162,51.507]}},{"type":"Feature","properties":{"StationName":"ZZNONAME","NativeID":"219","Elevation":"862","Jan":"-9999","Feb":"-9999","Mar":"-9999","Apr":"-9999","May":"34","Jun":"73","Jul":"-9999","Aug":"-9999","Sep":"-9999","Oct":"-9999","Nov":"-9999","Dec":"-9999"},"geometry":{"type":"Point","coordinates":[-124.0083,52.9533]}},{"type":"Feature","properties":{"StationName":"BALDFACE","NativeID":"221","Elevation":"1666","Jan":"-9999","Feb":"-9999","Mar":"-9999","Apr":"-9999","May":"26","Jun":"53","Jul":"42","Aug":"39","Sep":"26","Oct":"-9999","Nov":"-9999","Dec":"-9999"},"geometry":{"type":"Point","coordinates":[-124.4823,52.7101]}},{"type":"Feature","properties":{"StationName":"GASPARD","NativeID":"222","Elevation":"1675","Jan":"-9999","Feb":"-9999","Mar":"-9999","Apr":"-9999","May":"38","Jun":"51","Jul":"45","Aug":"34","Sep":"25","Oct":"-9999","Nov":"-9999","Dec":"-9999"},"geometry":{"type":"Point","coordinates":[-122.6617,51.4517]}},{"type":"Feature","properties":{"StationName":"KNIFE","NativeID":"225","Elevation":"945","Jan":"-9999","Feb":"-9999","Mar":"-9999","Apr":"-9999","May":"43","Jun":"54","Jul":"51","Aug":"40","Sep":"35","Oct":"-9999","Nov":"-9999","Dec":"-9999"},"geometry":{"type":"Point","coordinates":[-121.885,52.065]}},{"type":"Feature","properties":{"StationName":"MIDDLELAKE","NativeID":"226","Elevation":"915","Jan":"-9999","Feb":"-9999","Mar":"-9999","Apr":"-9999","May":"26","Jun":"35","Jul":"24","Aug":"28","Sep":"21","Oct":"-9999","Nov":"-9999","Dec":"-9999"},"geometry":{"type":"Point","coordinates":[-124.875,51.7017]}},{"type":"Feature","properties":{"StationName":"GAVIN","NativeID":"227","Elevation":"1081","Jan":"-9999","Feb":"-9999","Mar":"-9999","Apr":"-9999","May":"57","Jun":"73","Jul":"65","Aug":"50","Sep":"50","Oct":"-9999","Nov":"-9999","Dec":"-9999"},"geometry":{"type":"Point","coordinates":[-121.7417,52.47]}},{"type":"Feature","properties":{"StationName":"BENSON","NativeID":"228","Elevation":"1006","Jan":"-9999","Feb":"-9999","Mar":"-9999","Apr":"-9999","May":"55","Jun":"78","Jul":"70","Aug":"58","Sep":"56","Oct":"-9999","Nov":"-9999","Dec":"-9999"},"geometry":{"type":"Point","coordinates":[-122.065,52.91]}},{"type":"Feature","properties":{"StationName":"HORSEFLY","NativeID":"230","Elevation":"701","Jan":"-9999","Feb":"-9999","Mar":"-9999","Apr":"-9999","May":"44","Jun":"61","Jul":"58","Aug":"45","Sep":"41","Oct":"-9999","Nov":"-9999","Dec":"-9999"},"geometry":{"type":"Point","coordinates":[-121.3967,52.33]}},{"type":"Feature","properties":{"StationName":"ZZTHUYALAK","NativeID":"231","Elevation":"1432","Jan":"-9999","Feb":"-9999","Mar":"-9999","Apr":"-9999","May":"-9999","Jun":"77","Jul":"72","Aug":"-9999","Sep":"41","Oct":"-9999","Nov":"-9999","Dec":"-9999"},"geometry":{"type":"Point","coordinates":[-120.34,51.4117]}},{"type":"Feature","properties":{"StationName":"COLDSCAURLA","NativeID":"232","Elevation":"1158","Jan":"-9999","Feb":"-9999","Mar":"-9999","Apr":"-9999","May":"66","Jun":"89","Jul":"70","Aug":"57","Sep":"55","Oct":"-9999","Nov":"-9999","Dec":"-9999"},"geometry":{"type":"Point","coordinates":[-120.39,51.725]}},{"type":"Feature","properties":{"StationName":"TALCHAKO(MB","NativeID":"233","Elevation":"244","Jan":"-9999","Feb":"-9999","Mar":"-9999","Apr":"-9999","May":"45","Jun":"41","Jul":"27","Aug":"42","Sep":"88","Oct":"-9999","Nov":"-9999","Dec":"-9999"},"geometry":{"type":"Point","coordinates":[-126.0283,52.2517]}},{"type":"Feature","properties":{"StationName":"TIMOTHY","NativeID":"234","Elevation":"1161","Jan":"-9999","Feb":"-9999","Mar":"-9999","Apr":"-9999","May":"47","Jun":"71","Jul":"47","Aug":"45","Sep":"45","Oct":"-9999","Nov":"-9999","Dec":"-9999"},"geometry":{"type":"Point","coordinates":[-121.389,51.913]}},{"type":"Feature","properties":{"StationName":"YOUNGLAKE","NativeID":"235","Elevation":"1170","Jan":"-9999","Feb":"-9999","Mar":"-9999","Apr":"-9999","May":"51","Jun":"61","Jul":"44","Aug":"41","Sep":"40","Oct":"-9999","Nov":"-9999","Dec":"-9999"},"geometry":{"type":"Point","coordinates":[-120.9976,51.2378]}},{"type":"Feature","properties":{"StationName":"MEADOWLAKE","NativeID":"236","Elevation":"1070","Jan":"-9999","Feb":"-9999","Mar":"-9999","Apr":"-9999","May":"32","Jun":"39","Jul":"43","Aug":"28","Sep":"32","Oct":"-9999","Nov":"-9999","Dec":"-9999"},"geometry":{"type":"Point","coordinates":[-121.7167,51.375]}},{"type":"Feature","properties":{"StationName":"ZZHORSEFLY","NativeID":"237","Elevation":"780","Jan":"-9999","Feb":"-9999","Mar":"-9999","Apr":"-9999","May":"48","Jun":"62","Jul":"65","Aug":"48","Sep":"52","Oct":"-9999","Nov":"-9999","Dec":"-9999"},"geometry":{"type":"Point","coordinates":[-121.399993,52.335132]}},{"type":"Feature","properties":{"StationName":"CLEARWATER","NativeID":"239","Elevation":"396","Jan":"-9999","Feb":"-9999","Mar":"-9999","Apr":"-9999","May":"44","Jun":"52","Jul":"59","Aug":"40","Sep":"38","Oct":"-9999","Nov":"-9999","Dec":"-9999"},"geometry":{"type":"Point","coordinates":[-120.095,51.6283]}},{"type":"Feature","properties":{"StationName":"ZZBARRIERE","NativeID":"240","Elevation":"390","Jan":"-9999","Feb":"-9999","Mar":"-9999","Apr":"-9999","May":"38","Jun":"51","Jul":"48","Aug":"29","Sep":"35","Oct":"-9999","Nov":"-9999","Dec":"-9999"},"geometry":{"type":"Point","coordinates":[-120.127333,51.169578]}},{"type":"Feature","properties":{"StationName":"ZZBENSONDR","NativeID":"241","Elevation":"980","Jan":"-9999","Feb":"-9999","Mar":"-9999","Apr":"-9999","May":"37","Jun":"70","Jul":"80","Aug":"53","Sep":"58","Oct":"-9999","Nov":"-9999","Dec":"-9999"},"geometry":{"type":"Point","coordinates":[-122.086347,52.910138]}},{"type":"Feature","properties":{"StationName":"ZZHEMP(NEC","NativeID":"242","Elevation":"762","Jan":"-9999","Feb":"-9999","Mar":"-9999","Apr":"-9999","May":"55","Jun":"74","Jul":"86","Aug":"-9999","Sep":"36","Oct":"-9999","Nov":"-9999","Dec":"-9999"},"geometry":{"type":"Point","coordinates":[-120.03,51.925]}},{"type":"Feature","properties":{"StationName":"EASTBARRIER","NativeID":"243","Elevation":"671","Jan":"-9999","Feb":"-9999","Mar":"-9999","Apr":"-9999","May":"50","Jun":"54","Jul":"45","Aug":"41","Sep":"41","Oct":"-9999","Nov":"-9999","Dec":"-9999"},"geometry":{"type":"Point","coordinates":[-119.8817,51.2533]}},{"type":"Feature","properties":{"StationName":"WINDYMOUNTA","NativeID":"244","Elevation":"1580","Jan":"-9999","Feb":"-9999","Mar":"-9999","Apr":"-9999","May":"62","Jun":"90","Jul":"71","Aug":"55","Sep":"56","Oct":"-9999","Nov":"-9999","Dec":"-9999"},"geometry":{"type":"Point","coordinates":[-120.65,51.67]}},{"type":"Feature","properties":{"StationName":"ZZCOLDSCAUR","NativeID":"245","Elevation":"1120","Jan":"-9999","Feb":"-9999","Mar":"-9999","Apr":"-9999","May":"53","Jun":"77","Jul":"67","Aug":"50","Sep":"58","Oct":"-9999","Nov":"-9999","Dec":"-9999"},"geometry":{"type":"Point","coordinates":[-120.37814,51.716584]}},{"type":"Feature","properties":{"StationName":"ZZLANG","NativeID":"246","Elevation":"1100","Jan":"-9999","Feb":"-9999","Mar":"-9999","Apr":"-9999","May":"45","Jun":"97","Jul":"62","Aug":"62","Sep":"53","Oct":"-9999","Nov":"-9999","Dec":"-9999"},"geometry":{"type":"Point","coordinates":[-121.005887,51.98301]}},{"type":"Feature","properties":{"StationName":"ZZTHUYALAK","NativeID":"248","Elevation":"1310","Jan":"-9999","Feb":"-9999","Mar":"-9999","Apr":"-9999","May":"39","Jun":"53","Jul":"53","Aug":"43","Sep":"48","Oct":"-9999","Nov":"-9999","Dec":"-9999"},"geometry":{"type":"Point","coordinates":[-120.36546,51.409355]}},{"type":"Feature","properties":{"StationName":"ZZVAVENBY(","NativeID":"249","Elevation":"792","Jan":"-9999","Feb":"-9999","Mar":"-9999","Apr":"-9999","May":"44","Jun":"48","Jul":"57","Aug":"-9999","Sep":"40","Oct":"-9999","Nov":"-9999","Dec":"-9999"},"geometry":{"type":"Point","coordinates":[-119.6733,51.585]}},{"type":"Feature","properties":{"StationName":"HARBOURLAKE","NativeID":"250","Elevation":"1372","Jan":"-9999","Feb":"-9999","Mar":"-9999","Apr":"-9999","May":"100","Jun":"110","Jul":"94","Aug":"82","Sep":"74","Oct":"-9999","Nov":"-9999","Dec":"-9999"},"geometry":{"type":"Point","coordinates":[-119.115,51.5233]}},{"type":"Feature","properties":{"StationName":"DECEPTION","NativeID":"251","Elevation":"1170","Jan":"-9999","Feb":"-9999","Mar":"-9999","Apr":"-9999","May":"57","Jun":"90","Jul":"69","Aug":"65","Sep":"54","Oct":"-9999","Nov":"-9999","Dec":"-9999"},"geometry":{"type":"Point","coordinates":[-120.608,51.967]}},{"type":"Feature","properties":{"StationName":"CAHILTY","NativeID":"253","Elevation":"1615","Jan":"-9999","Feb":"-9999","Mar":"-9999","Apr":"-9999","May":"69","Jun":"72","Jul":"53","Aug":"48","Sep":"48","Oct":"-9999","Nov":"-9999","Dec":"-9999"},"geometry":{"type":"Point","coordinates":[-119.8383,50.8883]}},{"type":"Feature","properties":{"StationName":"LIKELYRS","NativeID":"255","Elevation":"1046","Jan":"-9999","Feb":"-9999","Mar":"-9999","Apr":"-9999","May":"60","Jun":"76","Jul":"70","Aug":"62","Sep":"62","Oct":"-9999","Nov":"-9999","Dec":"-9999"},"geometry":{"type":"Point","coordinates":[-121.5133,52.615]}},{"type":"Feature","properties":{"StationName":"BLUERIVERF","NativeID":"257","Elevation":"683","Jan":"-9999","Feb":"-9999","Mar":"-9999","Apr":"-9999","May":"66","Jun":"83","Jul":"94","Aug":"73","Sep":"71","Oct":"-9999","Nov":"-9999","Dec":"-9999"},"geometry":{"type":"Point","coordinates":[-119.2983,52.12]}},{"type":"Feature","properties":{"StationName":"ZZAVOLA(NE","NativeID":"258","Elevation":"518","Jan":"-9999","Feb":"-9999","Mar":"-9999","Apr":"-9999","May":"79","Jun":"102","Jul":"123","Aug":"81","Sep":"66","Oct":"-9999","Nov":"-9999","Dec":"-9999"},"geometry":{"type":"Point","coordinates":[-119.3267,51.7817]}},{"type":"Feature","properties":{"StationName":"BIGVALLEY","NativeID":"262","Elevation":"1355","Jan":"-9999","Feb":"-9999","Mar":"-9999","Apr":"-9999","May":"57","Jun":"96","Jul":"94","Aug":"68","Sep":"67","Oct":"-9999","Nov":"-9999","Dec":"-9999"},"geometry":{"type":"Point","coordinates":[-121.7617,53.2617]}},{"type":"Feature","properties":{"StationName":"MATHEW","NativeID":"263","Elevation":"1108","Jan":"-9999","Feb":"-9999","Mar":"-9999","Apr":"-9999","May":"73","Jun":"95","Jul":"93","Aug":"86","Sep":"74","Oct":"-9999","Nov":"-9999","Dec":"-9999"},"geometry":{"type":"Point","coordinates":[-120.9117,52.91]}},{"type":"Feature","properties":{"StationName":"PRAIRIECREE","NativeID":"264","Elevation":"1015","Jan":"-9999","Feb":"-9999","Mar":"-9999","Apr":"-9999","May":"69","Jun":"97","Jul":"84","Aug":"63","Sep":"68","Oct":"-9999","Nov":"-9999","Dec":"-9999"},"geometry":{"type":"Point","coordinates":[-120.985,52.3917]}},{"type":"Feature","properties":{"StationName":"ZZPLEASANT","NativeID":"265","Elevation":"914","Jan":"-9999","Feb":"-9999","Mar":"-9999","Apr":"-9999","May":"-9999","Jun":"84","Jul":"83","Aug":"74","Sep":"85","Oct":"-9999","Nov":"-9999","Dec":"-9999"},"geometry":{"type":"Point","coordinates":[-119.495,52.5467]}},{"type":"Feature","properties":{"StationName":"WELLSGRAY","NativeID":"266","Elevation":"975","Jan":"-9999","Feb":"-9999","Mar":"-9999","Apr":"-9999","May":"51","Jun":"79","Jul":"76","Aug":"78","Sep":"67","Oct":"-9999","Nov":"-9999","Dec":"-9999"},"geometry":{"type":"Point","coordinates":[-120.2433,52.3417]}},{"type":"Feature","properties":{"StationName":"BERRY","NativeID":"267","Elevation":"1524","Jan":"-9999","Feb":"-9999","Mar":"-9999","Apr":"-9999","May":"122","Jun":"94","Jul":"93","Aug":"80","Sep":"73","Oct":"-9999","Nov":"-9999","Dec":"-9999"},"geometry":{"type":"Point","coordinates":[-119.4133,51.9783]}},{"type":"Feature","properties":{"StationName":"ZZTUMTUM","NativeID":"268","Elevation":"975","Jan":"-9999","Feb":"-9999","Mar":"-9999","Apr":"-9999","May":"-9999","Jun":"120","Jul":"116","Aug":"76","Sep":"-9999","Oct":"-9999","Nov":"-9999","Dec":"-9999"},"geometry":{"type":"Point","coordinates":[-119.1367,51.8333]}},{"type":"Feature","properties":{"StationName":"ZZRAFTRIVE","NativeID":"269","Elevation":"701","Jan":"-9999","Feb":"-9999","Mar":"-9999","Apr":"-9999","May":"67","Jun":"71","Jul":"-9999","Aug":"-9999","Sep":"-9999","Oct":"-9999","Nov":"-9999","Dec":"-9999"},"geometry":{"type":"Point","coordinates":[-119.6567,51.8167]}},{"type":"Feature","properties":{"StationName":"GOSNEL","NativeID":"270","Elevation":"1859","Jan":"-9999","Feb":"-9999","Mar":"-9999","Apr":"-9999","May":"73","Jun":"88","Jul":"89","Aug":"95","Sep":"80","Oct":"-9999","Nov":"-9999","Dec":"-9999"},"geometry":{"type":"Point","coordinates":[-119.175,52.4533]}},{"type":"Feature","properties":{"StationName":"NIAGRA","NativeID":"271","Elevation":"910","Jan":"-9999","Feb":"-9999","Mar":"-9999","Apr":"-9999","May":"-9999","Jun":"-9999","Jul":"96","Aug":"68","Sep":"76","Oct":"-9999","Nov":"-9999","Dec":"-9999"},"geometry":{"type":"Point","coordinates":[-120.3583,52.625]}},{"type":"Feature","properties":{"StationName":"ZZGROUNDHOG","NativeID":"272","Elevation":"2133","Jan":"-9999","Feb":"-9999","Mar":"-9999","Apr":"-9999","May":"0","Jun":"0","Jul":"0","Aug":"0","Sep":"0","Oct":"-9999","Nov":"-9999","Dec":"-9999"},"geometry":{"type":"Point","coordinates":[-119.2167,51.875]}},{"type":"Feature","properties":{"StationName":"ZZHAMILTON","NativeID":"273","Elevation":"1500","Jan":"-9999","Feb":"-9999","Mar":"-9999","Apr":"-9999","May":"-9999","Jun":"56","Jul":"32","Aug":"29","Sep":"-9999","Oct":"-9999","Nov":"-9999","Dec":"-9999"},"geometry":{"type":"Point","coordinates":[-120.3595,50.126937]}},{"type":"Feature","properties":{"StationName":"ZZKAMLOOPS","NativeID":"275","Elevation":"520","Jan":"-9999","Feb":"-9999","Mar":"-9999","Apr":"-9999","May":"24","Jun":"37","Jul":"24","Aug":"25","Sep":"29","Oct":"-9999","Nov":"-9999","Dec":"-9999"},"geometry":{"type":"Point","coordinates":[-120.360838,50.664933]}},{"type":"Feature","properties":{"StationName":"ZZLAMONT","NativeID":"278","Elevation":"1615","Jan":"-9999","Feb":"-9999","Mar":"-9999","Apr":"-9999","May":"-9999","Jun":"39","Jul":"34","Aug":"37","Sep":"46","Oct":"-9999","Nov":"-9999","Dec":"-9999"},"geometry":{"type":"Point","coordinates":[-120.795,49.3233]}},{"type":"Feature","properties":{"StationName":"THYNNE","NativeID":"279","Elevation":"1524","Jan":"-9999","Feb":"-9999","Mar":"-9999","Apr":"-9999","May":"35","Jun":"39","Jul":"27","Aug":"23","Sep":"35","Oct":"-9999","Nov":"-9999","Dec":"-9999"},"geometry":{"type":"Point","coordinates":[-120.8667,49.715]}},{"type":"Feature","properties":{"StationName":"LILLOOET","NativeID":"280","Elevation":"402","Jan":"-9999","Feb":"-9999","Mar":"-9999","Apr":"-9999","May":"28","Jun":"31","Jul":"26","Aug":"24","Sep":"28","Oct":"-9999","Nov":"-9999","Dec":"-9999"},"geometry":{"type":"Point","coordinates":[-121.8883,50.6717]}},{"type":"Feature","properties":{"StationName":"BOTANIE","NativeID":"281","Elevation":"1554","Jan":"-9999","Feb":"-9999","Mar":"-9999","Apr":"-9999","May":"35","Jun":"33","Jul":"27","Aug":"24","Sep":"29","Oct":"-9999","Nov":"-9999","Dec":"-9999"},"geometry":{"type":"Point","coordinates":[-121.57,50.4]}},{"type":"Feature","properties":{"StationName":"ZZDILLARD","NativeID":"282","Elevation":"1341","Jan":"-9999","Feb":"-9999","Mar":"-9999","Apr":"-9999","May":"54","Jun":"74","Jul":"36","Aug":"37","Sep":"34","Oct":"-9999","Nov":"-9999","Dec":"-9999"},"geometry":{"type":"Point","coordinates":[-120.4217,49.7667]}},{"type":"Feature","properties":{"StationName":"BRENDAMINES","NativeID":"283","Elevation":"1493","Jan":"-9999","Feb":"-9999","Mar":"-9999","Apr":"-9999","May":"52","Jun":"61","Jul":"43","Aug":"39","Sep":"36","Oct":"-9999","Nov":"-9999","Dec":"-9999"},"geometry":{"type":"Point","coordinates":[-119.9933,49.8683]}},{"type":"Feature","properties":{"StationName":"ZZSPIUSCRE","NativeID":"284","Elevation":"1036","Jan":"-9999","Feb":"-9999","Mar":"-9999","Apr":"-9999","May":"-9999","Jun":"32","Jul":"23","Aug":"19","Sep":"25","Oct":"-9999","Nov":"-9999","Dec":"-9999"},"geometry":{"type":"Point","coordinates":[-121.1183,49.9317]}},{"type":"Feature","properties":{"StationName":"ZZLUMBYR/S","NativeID":"285","Elevation":"500","Jan":"-9999","Feb":"-9999","Mar":"-9999","Apr":"-9999","May":"59","Jun":"61","Jul":"47","Aug":"32","Sep":"33","Oct":"-9999","Nov":"-9999","Dec":"-9999"},"geometry":{"type":"Point","coordinates":[-118.962584,50.244139]}},{"type":"Feature","properties":{"StationName":"TURTLE","NativeID":"286","Elevation":"640","Jan":"-9999","Feb":"-9999","Mar":"-9999","Apr":"-9999","May":"40","Jun":"43","Jul":"39","Aug":"31","Sep":"35","Oct":"-9999","Nov":"-9999","Dec":"-9999"},"geometry":{"type":"Point","coordinates":[-119.63,50.8033]}},{"type":"Feature","properties":{"StationName":"ZZGOLDBRIDG","NativeID":"287","Elevation":"700","Jan":"-9999","Feb":"-9999","Mar":"-9999","Apr":"-9999","May":"-9999","Jun":"25","Jul":"34","Aug":"21","Sep":"19","Oct":"-9999","Nov":"-9999","Dec":"-9999"},"geometry":{"type":"Point","coordinates":[-122.840321,50.850999]}},{"type":"Feature","properties":{"StationName":"ZZVERNONR","NativeID":"288","Elevation":"392","Jan":"-9999","Feb":"-9999","Mar":"-9999","Apr":"-9999","May":"38","Jun":"47","Jul":"32","Aug":"26","Sep":"30","Oct":"-9999","Nov":"-9999","Dec":"-9999"},"geometry":{"type":"Point","coordinates":[-119.264093,50.251984]}},{"type":"Feature","properties":{"StationName":"ZZSPRUCE","NativeID":"290","Elevation":"1462","Jan":"-9999","Feb":"-9999","Mar":"-9999","Apr":"-9999","May":"63","Jun":"66","Jul":"45","Aug":"43","Sep":"38","Oct":"-9999","Nov":"-9999","Dec":"-9999"},"geometry":{"type":"Point","coordinates":[-119.9967,50.4133]}},{"type":"Feature","properties":{"StationName":"GLIMPSE","NativeID":"291","Elevation":"1311","Jan":"-9999","Feb":"-9999","Mar":"-9999","Apr":"-9999","May":"48","Jun":"61","Jul":"44","Aug":"35","Sep":"39","Oct":"-9999","Nov":"-9999","Dec":"-9999"},"geometry":{"type":"Point","coordinates":[-120.2883,50.27]}},{"type":"Feature","properties":{"StationName":"D'ARCY","NativeID":"292","Elevation":"346","Jan":"-9999","Feb":"-9999","Mar":"-9999","Apr":"-9999","May":"26","Jun":"34","Jul":"27","Aug":"34","Sep":"38","Oct":"-9999","Nov":"-9999","Dec":"-9999"},"geometry":{"type":"Point","coordinates":[-122.498,50.5217]}},{"type":"Feature","properties":{"StationName":"ZZMANNINGP","NativeID":"293","Elevation":"1200","Jan":"-9999","Feb":"-9999","Mar":"-9999","Apr":"-9999","May":"-9999","Jun":"43","Jul":"35","Aug":"25","Sep":"32","Oct":"-9999","Nov":"-9999","Dec":"-9999"},"geometry":{"type":"Point","coordinates":[-120.782653,49.064753]}},{"type":"Feature","properties":{"StationName":"MERRITTRS","NativeID":"294","Elevation":"640","Jan":"-9999","Feb":"-9999","Mar":"-9999","Apr":"-9999","May":"28","Jun":"36","Jul":"21","Aug":"18","Sep":"24","Oct":"-9999","Nov":"-9999","Dec":"-9999"},"geometry":{"type":"Point","coordinates":[-120.7457,50.0875]}},{"type":"Feature","properties":{"StationName":"ZZCORNWALL","NativeID":"295","Elevation":"2000","Jan":"-9999","Feb":"-9999","Mar":"-9999","Apr":"-9999","May":"-9999","Jun":"-9999","Jul":"34","Aug":"22","Sep":"-9999","Oct":"-9999","Nov":"-9999","Dec":"-9999"},"geometry":{"type":"Point","coordinates":[-121.456566,50.696179]}},{"type":"Feature","properties":{"StationName":"LYTTONFS","NativeID":"297","Elevation":"295","Jan":"-9999","Feb":"-9999","Mar":"-9999","Apr":"-9999","May":"23","Jun":"20","Jul":"19","Aug":"17","Sep":"18","Oct":"-9999","Nov":"-9999","Dec":"-9999"},"geometry":{"type":"Point","coordinates":[-121.5867,50.2317]}},{"type":"Feature","properties":{"StationName":"FINTRY","NativeID":"298","Elevation":"670","Jan":"-9999","Feb":"-9999","Mar":"-9999","Apr":"-9999","May":"35","Jun":"40","Jul":"28","Aug":"31","Sep":"22","Oct":"-9999","Nov":"-9999","Dec":"-9999"},"geometry":{"type":"Point","coordinates":[-119.48,50.2067]}},{"type":"Feature","properties":{"StationName":"GOLDBRIDGE","NativeID":"300","Elevation":"731","Jan":"-9999","Feb":"-9999","Mar":"-9999","Apr":"-9999","May":"15","Jun":"30","Jul":"22","Aug":"27","Sep":"24","Oct":"-9999","Nov":"-9999","Dec":"-9999"},"geometry":{"type":"Point","coordinates":[-122.835,50.8533]}},{"type":"Feature","properties":{"StationName":"PEMBERTONBA","NativeID":"301","Elevation":"38","Jan":"-9999","Feb":"-9999","Mar":"-9999","Apr":"-9999","May":"47","Jun":"38","Jul":"35","Aug":"37","Sep":"44","Oct":"-9999","Nov":"-9999","Dec":"-9999"},"geometry":{"type":"Point","coordinates":[-122.526,50.3806]}},{"type":"Feature","properties":{"StationName":"ASPENGROVE","NativeID":"302","Elevation":"1065","Jan":"-9999","Feb":"-9999","Mar":"-9999","Apr":"-9999","May":"33","Jun":"35","Jul":"28","Aug":"22","Sep":"25","Oct":"-9999","Nov":"-9999","Dec":"-9999"},"geometry":{"type":"Point","coordinates":[-120.62,49.948]}},{"type":"Feature","properties":{"StationName":"ZZDEWDROP","NativeID":"303","Elevation":"1200","Jan":"-9999","Feb":"-9999","Mar":"-9999","Apr":"-9999","May":"19","Jun":"38","Jul":"-9999","Aug":"-9999","Sep":"-9999","Oct":"-9999","Nov":"-9999","Dec":"-9999"},"geometry":{"type":"Point","coordinates":[-120.595081,50.799597]}},{"type":"Feature","properties":{"StationName":"ZZREDPLATE","NativeID":"304","Elevation":"12","Jan":"-9999","Feb":"-9999","Mar":"-9999","Apr":"-9999","May":"40","Jun":"56","Jul":"-9999","Aug":"-9999","Sep":"-9999","Oct":"-9999","Nov":"-9999","Dec":"-9999"},"geometry":{"type":"Point","coordinates":[-120.6,50.8]}},{"type":"Feature","properties":{"StationName":"SPARKSLAKE","NativeID":"305","Elevation":"1036","Jan":"-9999","Feb":"-9999","Mar":"-9999","Apr":"-9999","May":"38","Jun":"51","Jul":"43","Aug":"32","Sep":"30","Oct":"-9999","Nov":"-9999","Dec":"-9999"},"geometry":{"type":"Point","coordinates":[-120.8667,50.9233]}},{"type":"Feature","properties":{"StationName":"FRENCHBAR(","NativeID":"306","Elevation":"1341","Jan":"-9999","Feb":"-9999","Mar":"-9999","Apr":"-9999","May":"44","Jun":"46","Jul":"40","Aug":"39","Sep":"31","Oct":"-9999","Nov":"-9999","Dec":"-9999"},"geometry":{"type":"Point","coordinates":[-122.255,51.03]}},{"type":"Feature","properties":{"StationName":"LEIGHTONLK","NativeID":"307","Elevation":"1204","Jan":"-9999","Feb":"-9999","Mar":"-9999","Apr":"-9999","May":"40","Jun":"48","Jul":"35","Aug":"28","Sep":"32","Oct":"-9999","Nov":"-9999","Dec":"-9999"},"geometry":{"type":"Point","coordinates":[-120.8367,50.6167]}},{"type":"Feature","properties":{"StationName":"ZZMANITOU","NativeID":"308","Elevation":"1432","Jan":"-9999","Feb":"-9999","Mar":"-9999","Apr":"-9999","May":"-9999","Jun":"43","Jul":"48","Aug":"33","Sep":"39","Oct":"-9999","Nov":"-9999","Dec":"-9999"},"geometry":{"type":"Point","coordinates":[-122.7683,51.0517]}},{"type":"Feature","properties":{"StationName":"GWYNETHLAKE","NativeID":"309","Elevation":"1250","Jan":"-9999","Feb":"-9999","Mar":"-9999","Apr":"-9999","May":"33","Jun":"38","Jul":"30","Aug":"36","Sep":"36","Oct":"-9999","Nov":"-9999","Dec":"-9999"},"geometry":{"type":"Point","coordinates":[-122.88,50.7967]}},{"type":"Feature","properties":{"StationName":"ZZDOT","NativeID":"310","Elevation":"853","Jan":"-9999","Feb":"-9999","Mar":"-9999","Apr":"-9999","May":"27","Jun":"28","Jul":"20","Aug":"20","Sep":"19","Oct":"-9999","Nov":"-9999","Dec":"-9999"},"geometry":{"type":"Point","coordinates":[-121.1533,50.2633]}},{"type":"Feature","properties":{"StationName":"MCLEANLK.","NativeID":"311","Elevation":"1128","Jan":"-9999","Feb":"-9999","Mar":"-9999","Apr":"-9999","May":"33","Jun":"41","Jul":"32","Aug":"29","Sep":"28","Oct":"-9999","Nov":"-9999","Dec":"-9999"},"geometry":{"type":"Point","coordinates":[-121.3583,50.7917]}},{"type":"Feature","properties":{"StationName":"ZZWENTWORTH","NativeID":"312","Elevation":"1646","Jan":"-9999","Feb":"-9999","Mar":"-9999","Apr":"-9999","May":"-9999","Jun":"-9999","Jul":"61","Aug":"50","Sep":"57","Oct":"-9999","Nov":"-9999","Dec":"-9999"},"geometry":{"type":"Point","coordinates":[-120.4867,50.9683]}},{"type":"Feature","properties":{"StationName":"ZZCAHILTYD","NativeID":"313","Elevation":"1615","Jan":"-9999","Feb":"-9999","Mar":"-9999","Apr":"-9999","May":"-9999","Jun":"-9999","Jul":"49","Aug":"55","Sep":"63","Oct":"-9999","Nov":"-9999","Dec":"-9999"},"geometry":{"type":"Point","coordinates":[-119.838,50.888]}},{"type":"Feature","properties":{"StationName":"NAHATLATCH","NativeID":"316","Elevation":"1400","Jan":"-9999","Feb":"-9999","Mar":"-9999","Apr":"-9999","May":"60","Jun":"50","Jul":"35","Aug":"39","Sep":"60","Oct":"-9999","Nov":"-9999","Dec":"-9999"},"geometry":{"type":"Point","coordinates":[-122.0207,49.9018]}},{"type":"Feature","properties":{"StationName":"ALLISONPASS","NativeID":"317","Elevation":"1215","Jan":"-9999","Feb":"-9999","Mar":"-9999","Apr":"-9999","May":"42","Jun":"48","Jul":"30","Aug":"29","Sep":"40","Oct":"-9999","Nov":"-9999","Dec":"-9999"},"geometry":{"type":"Point","coordinates":[-120.7667,49.0633]}},{"type":"Feature","properties":{"StationName":"ZZSMITHCRE","NativeID":"319","Elevation":"1402","Jan":"-9999","Feb":"-9999","Mar":"-9999","Apr":"-9999","May":"38","Jun":"62","Jul":"39","Aug":"46","Sep":"31","Oct":"-9999","Nov":"-9999","Dec":"-9999"},"geometry":{"type":"Point","coordinates":[-120.2183,49.3083]}},{"type":"Feature","properties":{"StationName":"ZZTYNER","NativeID":"320","Elevation":"1402","Jan":"-9999","Feb":"-9999","Mar":"-9999","Apr":"-9999","May":"40","Jun":"44","Jul":"28","Aug":"26","Sep":"24","Oct":"-9999","Nov":"-9999","Dec":"-9999"},"geometry":{"type":"Point","coordinates":[-120.9267,50.3133]}},{"type":"Feature","properties":{"StationName":"GREENSTONEH","NativeID":"321","Elevation":"1829","Jan":"-9999","Feb":"-9999","Mar":"-9999","Apr":"-9999","May":"26","Jun":"39","Jul":"35","Aug":"23","Sep":"21","Oct":"-9999","Nov":"-9999","Dec":"-9999"},"geometry":{"type":"Point","coordinates":[-120.64,50.6117]}},{"type":"Feature","properties":{"StationName":"AFTON","NativeID":"322","Elevation":"780","Jan":"-9999","Feb":"-9999","Mar":"-9999","Apr":"-9999","May":"25","Jun":"40","Jul":"33","Aug":"21","Sep":"23","Oct":"-9999","Nov":"-9999","Dec":"-9999"},"geometry":{"type":"Point","coordinates":[-120.4817,50.6733]}},{"type":"Feature","properties":{"StationName":"ZZMID-SLOPE","NativeID":"323","Elevation":"1250","Jan":"-9999","Feb":"-9999","Mar":"-9999","Apr":"-9999","May":"38","Jun":"51","Jul":"36","Aug":"25","Sep":"38","Oct":"-9999","Nov":"-9999","Dec":"-9999"},"geometry":{"type":"Point","coordinates":[-120.51487,50.584843]}},{"type":"Feature","properties":{"StationName":"ZZBOSTONBA","NativeID":"324","Elevation":"150","Jan":"-9999","Feb":"-9999","Mar":"-9999","Apr":"-9999","May":"31","Jun":"35","Jul":"18","Aug":"23","Sep":"29","Oct":"-9999","Nov":"-9999","Dec":"-9999"},"geometry":{"type":"Point","coordinates":[-121.435,49.855]}},{"type":"Feature","properties":{"StationName":"STEMWINDER","NativeID":"325","Elevation":"579","Jan":"-9999","Feb":"-9999","Mar":"-9999","Apr":"-9999","May":"34","Jun":"46","Jul":"29","Aug":"36","Sep":"25","Oct":"-9999","Nov":"-9999","Dec":"-9999"},"geometry":{"type":"Point","coordinates":[-120.1533,49.38]}},{"type":"Feature","properties":{"StationName":"PASKALAKE","NativeID":"326","Elevation":"1440","Jan":"-9999","Feb":"-9999","Mar":"-9999","Apr":"-9999","May":"43","Jun":"47","Jul":"41","Aug":"30","Sep":"36","Oct":"-9999","Nov":"-9999","Dec":"-9999"},"geometry":{"type":"Point","coordinates":[-120.674,50.504]}},{"type":"Feature","properties":{"StationName":"PENTICTONRS","NativeID":"328","Elevation":"427","Jan":"-9999","Feb":"-9999","Mar":"-9999","Apr":"-9999","May":"36","Jun":"53","Jul":"30","Aug":"29","Sep":"25","Oct":"-9999","Nov":"-9999","Dec":"-9999"},"geometry":{"type":"Point","coordinates":[-119.5533,49.5183]}},{"type":"Feature","properties":{"StationName":"ZZLITTLEWH","NativeID":"329","Elevation":"1716","Jan":"-9999","Feb":"-9999","Mar":"-9999","Apr":"-9999","May":"-9999","Jun":"90","Jul":"49","Aug":"37","Sep":"-9999","Oct":"-9999","Nov":"-9999","Dec":"-9999"},"geometry":{"type":"Point","coordinates":[-119.289116,49.701142]}},{"type":"Feature","properties":{"StationName":"ZZABERDEEN","NativeID":"330","Elevation":"1402","Jan":"-9999","Feb":"-9999","Mar":"-9999","Apr":"-9999","May":"55","Jun":"72","Jul":"61","Aug":"45","Sep":"43","Oct":"-9999","Nov":"-9999","Dec":"-9999"},"geometry":{"type":"Point","coordinates":[-118.9833,50.1233]}},{"type":"Feature","properties":{"StationName":"ASHNOLA(MB)","NativeID":"331","Elevation":"1335","Jan":"-9999","Feb":"-9999","Mar":"-9999","Apr":"-9999","May":"33","Jun":"44","Jul":"35","Aug":"33","Sep":"21","Oct":"-9999","Nov":"-9999","Dec":"-9999"},"geometry":{"type":"Point","coordinates":[-120.1833,49.14]}},{"type":"Feature","properties":{"StationName":"ZZCHAINLAK","NativeID":"332","Elevation":"1014","Jan":"-9999","Feb":"-9999","Mar":"-9999","Apr":"-9999","May":"43","Jun":"56","Jul":"39","Aug":"35","Sep":"30","Oct":"-9999","Nov":"-9999","Dec":"-9999"},"geometry":{"type":"Point","coordinates":[-120.278502,49.686986]}},{"type":"Feature","properties":{"StationName":"ZZCHOPAKA","NativeID":"333","Elevation":"359","Jan":"-9999","Feb":"-9999","Mar":"-9999","Apr":"-9999","May":"31","Jun":"33","Jul":"22","Aug":"12","Sep":"11","Oct":"-9999","Nov":"-9999","Dec":"-9999"},"geometry":{"type":"Point","coordinates":[-119.726548,49.000571]}},{"type":"Feature","properties":{"StationName":"MCCUDDY","NativeID":"334","Elevation":"1067","Jan":"-9999","Feb":"-9999","Mar":"-9999","Apr":"-9999","May":"47","Jun":"58","Jul":"34","Aug":"26","Sep":"25","Oct":"-9999","Nov":"-9999","Dec":"-9999"},"geometry":{"type":"Point","coordinates":[-119.415,49.1483]}},{"type":"Feature","properties":{"StationName":"ZZIDABELL","NativeID":"336","Elevation":"1250","Jan":"-9999","Feb":"-9999","Mar":"-9999","Apr":"-9999","May":"103","Jun":"67","Jul":"40","Aug":"34","Sep":"39","Oct":"-9999","Nov":"-9999","Dec":"-9999"},"geometry":{"type":"Point","coordinates":[-119.1767,49.7367]}},{"type":"Feature","properties":{"StationName":"ZZAGURLAKE","NativeID":"338","Elevation":"1189","Jan":"-9999","Feb":"-9999","Mar":"-9999","Apr":"-9999","May":"38","Jun":"46","Jul":"31","Aug":"27","Sep":"24","Oct":"-9999","Nov":"-9999","Dec":"-9999"},"geometry":{"type":"Point","coordinates":[-119.825,49.57]}},{"type":"Feature","properties":{"StationName":"ZZKALLK.I","NativeID":"341","Elevation":"457","Jan":"-9999","Feb":"-9999","Mar":"-9999","Apr":"-9999","May":"36","Jun":"35","Jul":"26","Aug":"28","Sep":"35","Oct":"-9999","Nov":"-9999","Dec":"-9999"},"geometry":{"type":"Point","coordinates":[-119.2767,50.2367]}},{"type":"Feature","properties":{"StationName":"HOWARD","NativeID":"343","Elevation":"838","Jan":"-9999","Feb":"-9999","Mar":"-9999","Apr":"-9999","May":"35","Jun":"48","Jul":"50","Aug":"49","Sep":"56","Oct":"-9999","Nov":"-9999","Dec":"-9999"},"geometry":{"type":"Point","coordinates":[-118.6594,52.3721]}},{"type":"Feature","properties":{"StationName":"SEYMOURARM","NativeID":"344","Elevation":"549","Jan":"-9999","Feb":"-9999","Mar":"-9999","Apr":"-9999","May":"72","Jun":"105","Jul":"72","Aug":"67","Sep":"67","Oct":"-9999","Nov":"-9999","Dec":"-9999"},"geometry":{"type":"Point","coordinates":[-118.915,51.2733]}},{"type":"Feature","properties":{"StationName":"ZZBIGMOUTH","NativeID":"345","Elevation":"832","Jan":"-9999","Feb":"-9999","Mar":"-9999","Apr":"-9999","May":"-9999","Jun":"80","Jul":"95","Aug":"82","Sep":"76","Oct":"-9999","Nov":"-9999","Dec":"-9999"},"geometry":{"type":"Point","coordinates":[-118.3612,51.8288]}},{"type":"Feature","properties":{"StationName":"SALMONARM","NativeID":"346","Elevation":"527","Jan":"-9999","Feb":"-9999","Mar":"-9999","Apr":"-9999","May":"47","Jun":"57","Jul":"39","Aug":"37","Sep":"40","Oct":"-9999","Nov":"-9999","Dec":"-9999"},"geometry":{"type":"Point","coordinates":[-119.235,50.685]}},{"type":"Feature","properties":{"StationName":"ZZSICAMOUS","NativeID":"347","Elevation":"364","Jan":"-9999","Feb":"-9999","Mar":"-9999","Apr":"-9999","May":"-9999","Jun":"90","Jul":"67","Aug":"51","Sep":"-9999","Oct":"-9999","Nov":"-9999","Dec":"-9999"},"geometry":{"type":"Point","coordinates":[-118.959036,50.84405]}},{"type":"Feature","properties":{"StationName":"ZZLAMMERS","NativeID":"348","Elevation":"450","Jan":"-9999","Feb":"-9999","Mar":"-9999","Apr":"-9999","May":"40","Jun":"61","Jul":"75","Aug":"54","Sep":"53","Oct":"-9999","Nov":"-9999","Dec":"-9999"},"geometry":{"type":"Point","coordinates":[-119.459136,51.397733]}},{"type":"Feature","properties":{"StationName":"ZZLAFORMEC","NativeID":"349","Elevation":"590","Jan":"-9999","Feb":"-9999","Mar":"-9999","Apr":"-9999","May":"-9999","Jun":"66","Jul":"64","Aug":"62","Sep":"-9999","Oct":"-9999","Nov":"-9999","Dec":"-9999"},"geometry":{"type":"Point","coordinates":[-118.209016,51.224008]}},{"type":"Feature","properties":{"StationName":"ZZTFL33","NativeID":"350","Elevation":"1250","Jan":"-9999","Feb":"-9999","Mar":"-9999","Apr":"-9999","May":"87","Jun":"103","Jul":"68","Aug":"58","Sep":"79","Oct":"-9999","Nov":"-9999","Dec":"-9999"},"geometry":{"type":"Point","coordinates":[-118.9633,50.92]}},{"type":"Feature","properties":{"StationName":"ZZSIMARD(N","NativeID":"351","Elevation":"1768","Jan":"-9999","Feb":"-9999","Mar":"-9999","Apr":"-9999","May":"-9999","Jun":"-9999","Jul":"-9999","Aug":"63","Sep":"69","Oct":"-9999","Nov":"-9999","Dec":"-9999"},"geometry":{"type":"Point","coordinates":[-118.6467,50.6117]}},{"type":"Feature","properties":{"StationName":"CURWENCREEK","NativeID":"352","Elevation":"1250","Jan":"-9999","Feb":"-9999","Mar":"-9999","Apr":"-9999","May":"122","Jun":"101","Jul":"77","Aug":"70","Sep":"75","Oct":"-9999","Nov":"-9999","Dec":"-9999"},"geometry":{"type":"Point","coordinates":[-118.4233,50.6033]}},{"type":"Feature","properties":{"StationName":"ZZLAMBERTON","NativeID":"353","Elevation":"1097","Jan":"-9999","Feb":"-9999","Mar":"-9999","Apr":"-9999","May":"-9999","Jun":"89","Jul":"69","Aug":"48","Sep":"68","Oct":"-9999","Nov":"-9999","Dec":"-9999"},"geometry":{"type":"Point","coordinates":[-119.3983,51.01]}},{"type":"Feature","properties":{"StationName":"ZZYARDCREE","NativeID":"354","Elevation":"1300","Jan":"-9999","Feb":"-9999","Mar":"-9999","Apr":"-9999","May":"-9999","Jun":"-9999","Jul":"120","Aug":"94","Sep":"90","Oct":"-9999","Nov":"-9999","Dec":"-9999"},"geometry":{"type":"Point","coordinates":[-118.700748,50.896591]}},{"type":"Feature","properties":{"StationName":"ZZGOLDSTREA","NativeID":"355","Elevation":"632","Jan":"-9999","Feb":"-9999","Mar":"-9999","Apr":"-9999","May":"61","Jun":"61","Jul":"75","Aug":"65","Sep":"69","Oct":"-9999","Nov":"-9999","Dec":"-9999"},"geometry":{"type":"Point","coordinates":[-118.6578,51.7453]}},{"type":"Feature","properties":{"StationName":"ZZKINGFISHE","NativeID":"357","Elevation":"640","Jan":"-9999","Feb":"-9999","Mar":"-9999","Apr":"-9999","May":"-9999","Jun":"-9999","Jul":"53","Aug":"49","Sep":"54","Oct":"-9999","Nov":"-9999","Dec":"-9999"},"geometry":{"type":"Point","coordinates":[-118.7583,50.6983]}},{"type":"Feature","properties":{"StationName":"ZZTRACYCRE","NativeID":"360","Elevation":"1067","Jan":"-9999","Feb":"-9999","Mar":"-9999","Apr":"-9999","May":"-9999","Jun":"63","Jul":"64","Aug":"42","Sep":"61","Oct":"-9999","Nov":"-9999","Dec":"-9999"},"geometry":{"type":"Point","coordinates":[-119.44,51.265]}},{"type":"Feature","properties":{"StationName":"TSARCREEK","NativeID":"361","Elevation":"1200","Jan":"-9999","Feb":"-9999","Mar":"-9999","Apr":"-9999","May":"40","Jun":"45","Jul":"70","Aug":"67","Sep":"59","Oct":"-9999","Nov":"-9999","Dec":"-9999"},"geometry":{"type":"Point","coordinates":[-118.1025,51.9972]}},{"type":"Feature","properties":{"StationName":"MABELLKII","NativeID":"362","Elevation":"488","Jan":"-9999","Feb":"-9999","Mar":"-9999","Apr":"-9999","May":"51","Jun":"64","Jul":"49","Aug":"40","Sep":"47","Oct":"-9999","Nov":"-9999","Dec":"-9999"},"geometry":{"type":"Point","coordinates":[-118.7733,50.3517]}},{"type":"Feature","properties":{"StationName":"REVELSTOKEF","NativeID":"363","Elevation":"680","Jan":"-9999","Feb":"-9999","Mar":"-9999","Apr":"-9999","May":"63","Jun":"69","Jul":"68","Aug":"61","Sep":"76","Oct":"-9999","Nov":"-9999","Dec":"-9999"},"geometry":{"type":"Point","coordinates":[-118.2172,51.0603]}},{"type":"Feature","properties":{"StationName":"ZZSOR-NIE","NativeID":"364","Elevation":"761","Jan":"-9999","Feb":"-9999","Mar":"-9999","Apr":"-9999","May":"-9999","Jun":"83","Jul":"87","Aug":"74","Sep":"73","Oct":"-9999","Nov":"-9999","Dec":"-9999"},"geometry":{"type":"Point","coordinates":[-118.1855,51.4708]}},{"type":"Feature","properties":{"StationName":"ZZORIGCRAW","NativeID":"365","Elevation":"1000","Jan":"-9999","Feb":"-9999","Mar":"-9999","Apr":"-9999","May":"53","Jun":"61","Jul":"50","Aug":"43","Sep":"56","Oct":"-9999","Nov":"-9999","Dec":"-9999"},"geometry":{"type":"Point","coordinates":[-117.943,50.7288]}},{"type":"Feature","properties":{"StationName":"WHISKEY","NativeID":"366","Elevation":"1300","Jan":"-9999","Feb":"-9999","Mar":"-9999","Apr":"-9999","May":"33","Jun":"60","Jul":"41","Aug":"46","Sep":"43","Oct":"-9999","Nov":"-9999","Dec":"-9999"},"geometry":{"type":"Point","coordinates":[-116.785,51.0653]}},{"type":"Feature","properties":{"StationName":"MARION","NativeID":"367","Elevation":"1300","Jan":"-9999","Feb":"-9999","Mar":"-9999","Apr":"-9999","May":"43","Jun":"75","Jul":"50","Aug":"64","Sep":"49","Oct":"-9999","Nov":"-9999","Dec":"-9999"},"geometry":{"type":"Point","coordinates":[-116.3638,51.0422]}},{"type":"Feature","properties":{"StationName":"ZZDRIFTWOOD","NativeID":"373","Elevation":"938","Jan":"-9999","Feb":"-9999","Mar":"-9999","Apr":"-9999","May":"36","Jun":"52","Jul":"43","Aug":"39","Sep":"34","Oct":"-9999","Nov":"-9999","Dec":"-9999"},"geometry":{"type":"Point","coordinates":[-116.338,50.8458]}},{"type":"Feature","properties":{"StationName":"SUCCOURCREE","NativeID":"374","Elevation":"1000","Jan":"-9999","Feb":"-9999","Mar":"-9999","Apr":"-9999","May":"27","Jun":"40","Jul":"41","Aug":"49","Sep":"42","Oct":"-9999","Nov":"-9999","Dec":"-9999"},"geometry":{"type":"Point","coordinates":[-117.5417,51.7162]}},{"type":"Feature","properties":{"StationName":"ZZDONALDCR","NativeID":"375","Elevation":"1300","Jan":"-9999","Feb":"-9999","Mar":"-9999","Apr":"-9999","May":"51","Jun":"53","Jul":"55","Aug":"47","Sep":"51","Oct":"-9999","Nov":"-9999","Dec":"-9999"},"geometry":{"type":"Point","coordinates":[-117.1638,51.4312]}},{"type":"Feature","properties":{"StationName":"TABERNACLES","NativeID":"376","Elevation":"2438","Jan":"-9999","Feb":"-9999","Mar":"-9999","Apr":"-9999","May":"0","Jun":"0","Jul":"0","Aug":"0","Sep":"0","Oct":"-9999","Nov":"-9999","Dec":"-9999"},"geometry":{"type":"Point","coordinates":[-117.7613,51.7513]}},{"type":"Feature","properties":{"StationName":"ZZNAKUSPRS","NativeID":"377","Elevation":"651","Jan":"-9999","Feb":"-9999","Mar":"-9999","Apr":"-9999","May":"62","Jun":"79","Jul":"61","Aug":"43","Sep":"48","Oct":"-9999","Nov":"-9999","Dec":"-9999"},"geometry":{"type":"Point","coordinates":[-117.7763,50.2525]}},{"type":"Feature","properties":{"StationName":"ZZRIONDEL","NativeID":"378","Elevation":"701","Jan":"-9999","Feb":"-9999","Mar":"-9999","Apr":"-9999","May":"55","Jun":"63","Jul":"39","Aug":"36","Sep":"48","Oct":"-9999","Nov":"-9999","Dec":"-9999"},"geometry":{"type":"Point","coordinates":[-116.851,49.747]}},{"type":"Feature","properties":{"StationName":"GOLDHILL","NativeID":"379","Elevation":"800","Jan":"-9999","Feb":"-9999","Mar":"-9999","Apr":"-9999","May":"57","Jun":"70","Jul":"55","Aug":"49","Sep":"54","Oct":"-9999","Nov":"-9999","Dec":"-9999"},"geometry":{"type":"Point","coordinates":[-117.0645,50.3658]}},{"type":"Feature","properties":{"StationName":"POWDERCREEK","NativeID":"380","Elevation":"1019","Jan":"-9999","Feb":"-9999","Mar":"-9999","Apr":"-9999","May":"58","Jun":"68","Jul":"41","Aug":"54","Sep":"48","Oct":"-9999","Nov":"-9999","Dec":"-9999"},"geometry":{"type":"Point","coordinates":[-116.8551,49.9065]}},{"type":"Feature","properties":{"StationName":"FALLSCK","NativeID":"383","Elevation":"790","Jan":"-9999","Feb":"-9999","Mar":"-9999","Apr":"-9999","May":"68","Jun":"91","Jul":"43","Aug":"54","Sep":"48","Oct":"-9999","Nov":"-9999","Dec":"-9999"},"geometry":{"type":"Point","coordinates":[-117.8799,50.383]}},{"type":"Feature","properties":{"StationName":"HOWSER","NativeID":"384","Elevation":"1300","Jan":"-9999","Feb":"-9999","Mar":"-9999","Apr":"-9999","May":"58","Jun":"80","Jul":"59","Aug":"56","Sep":"58","Oct":"-9999","Nov":"-9999","Dec":"-9999"},"geometry":{"type":"Point","coordinates":[-117.0017,50.3663]}},{"type":"Feature","properties":{"StationName":"DUNCAN","NativeID":"385","Elevation":"1376","Jan":"-9999","Feb":"-9999","Mar":"-9999","Apr":"-9999","May":"57","Jun":"89","Jul":"71","Aug":"72","Sep":"78","Oct":"-9999","Nov":"-9999","Dec":"-9999"},"geometry":{"type":"Point","coordinates":[-117.1805,50.7808]}},{"type":"Feature","properties":{"StationName":"TROUTLAKE","NativeID":"387","Elevation":"991","Jan":"-9999","Feb":"-9999","Mar":"-9999","Apr":"-9999","May":"59","Jun":"78","Jul":"56","Aug":"53","Sep":"59","Oct":"-9999","Nov":"-9999","Dec":"-9999"},"geometry":{"type":"Point","coordinates":[-117.4645,50.6213]}},{"type":"Feature","properties":{"StationName":"KETTLEII","NativeID":"388","Elevation":"1341","Jan":"-9999","Feb":"-9999","Mar":"-9999","Apr":"-9999","May":"68","Jun":"80","Jul":"59","Aug":"45","Sep":"48","Oct":"-9999","Nov":"-9999","Dec":"-9999"},"geometry":{"type":"Point","coordinates":[-118.625,49.96]}},{"type":"Feature","properties":{"StationName":"BEAVERDELL","NativeID":"390","Elevation":"807","Jan":"-9999","Feb":"-9999","Mar":"-9999","Apr":"-9999","May":"43","Jun":"54","Jul":"31","Aug":"21","Sep":"25","Oct":"-9999","Nov":"-9999","Dec":"-9999"},"geometry":{"type":"Point","coordinates":[-119.0883,49.457]}},{"type":"Feature","properties":{"StationName":"8MILE","NativeID":"391","Elevation":"1338","Jan":"-9999","Feb":"-9999","Mar":"-9999","Apr":"-9999","May":"72","Jun":"62","Jul":"40","Aug":"28","Sep":"38","Oct":"-9999","Nov":"-9999","Dec":"-9999"},"geometry":{"type":"Point","coordinates":[-118.5783,49.4328]}},{"type":"Feature","properties":{"StationName":"GRANDFORKS","NativeID":"392","Elevation":"630","Jan":"-9999","Feb":"-9999","Mar":"-9999","Apr":"-9999","May":"50","Jun":"52","Jul":"30","Aug":"24","Sep":"24","Oct":"-9999","Nov":"-9999","Dec":"-9999"},"geometry":{"type":"Point","coordinates":[-118.4156,49.0307]}},{"type":"Feature","properties":{"StationName":"NICOLL","NativeID":"393","Elevation":"866","Jan":"-9999","Feb":"-9999","Mar":"-9999","Apr":"-9999","May":"58","Jun":"66","Jul":"41","Aug":"32","Sep":"34","Oct":"-9999","Nov":"-9999","Dec":"-9999"},"geometry":{"type":"Point","coordinates":[-118.3603,49.5267]}},{"type":"Feature","properties":{"StationName":"ROCKCREEK","NativeID":"394","Elevation":"609","Jan":"-9999","Feb":"-9999","Mar":"-9999","Apr":"-9999","May":"50","Jun":"49","Jul":"24","Aug":"26","Sep":"20","Oct":"-9999","Nov":"-9999","Dec":"-9999"},"geometry":{"type":"Point","coordinates":[-118.9367,49.052]}},{"type":"Feature","properties":{"StationName":"OCTOPUSCREE","NativeID":"396","Elevation":"1432","Jan":"-9999","Feb":"-9999","Mar":"-9999","Apr":"-9999","May":"75","Jun":"83","Jul":"57","Aug":"38","Sep":"42","Oct":"-9999","Nov":"-9999","Dec":"-9999"},"geometry":{"type":"Point","coordinates":[-118.081,49.699]}},{"type":"Feature","properties":{"StationName":"CRESTON","NativeID":"398","Elevation":"683","Jan":"-9999","Feb":"-9999","Mar":"-9999","Apr":"-9999","May":"47","Jun":"50","Jul":"30","Aug":"23","Sep":"27","Oct":"-9999","Nov":"-9999","Dec":"-9999"},"geometry":{"type":"Point","coordinates":[-116.4958,49.038]}},{"type":"Feature","properties":{"StationName":"ZZREDFISH","NativeID":"400","Elevation":"580","Jan":"-9999","Feb":"-9999","Mar":"-9999","Apr":"-9999","May":"-9999","Jun":"62","Jul":"40","Aug":"44","Sep":"40","Oct":"-9999","Nov":"-9999","Dec":"-9999"},"geometry":{"type":"Point","coordinates":[-117.043402,49.615821]}},{"type":"Feature","properties":{"StationName":"GOATFELL","NativeID":"401","Elevation":"1098","Jan":"-9999","Feb":"-9999","Mar":"-9999","Apr":"-9999","May":"64","Jun":"73","Jul":"44","Aug":"31","Sep":"36","Oct":"-9999","Nov":"-9999","Dec":"-9999"},"geometry":{"type":"Point","coordinates":[-116.1638,49.1253]}},{"type":"Feature","properties":{"StationName":"PENDOREILLE","NativeID":"402","Elevation":"813","Jan":"-9999","Feb":"-9999","Mar":"-9999","Apr":"-9999","May":"71","Jun":"79","Jul":"38","Aug":"35","Sep":"37","Oct":"-9999","Nov":"-9999","Dec":"-9999"},"geometry":{"type":"Point","coordinates":[-117.4128,49.053]}},{"type":"Feature","properties":{"StationName":"SMALLWOOD","NativeID":"404","Elevation":"997","Jan":"-9999","Feb":"-9999","Mar":"-9999","Apr":"-9999","May":"69","Jun":"78","Jul":"46","Aug":"44","Sep":"45","Oct":"-9999","Nov":"-9999","Dec":"-9999"},"geometry":{"type":"Point","coordinates":[-117.4475,49.4967]}},{"type":"Feature","properties":{"StationName":"ZZEDGEWOOD","NativeID":"405","Elevation":"456","Jan":"-9999","Feb":"-9999","Mar":"-9999","Apr":"-9999","May":"-9999","Jun":"-9999","Jul":"-9999","Aug":"47","Sep":"-9999","Oct":"-9999","Nov":"-9999","Dec":"-9999"},"geometry":{"type":"Point","coordinates":[-118.142168,49.769624]}},{"type":"Feature","properties":{"StationName":"SLOCAN","NativeID":"406","Elevation":"1230","Jan":"-9999","Feb":"-9999","Mar":"-9999","Apr":"-9999","May":"66","Jun":"80","Jul":"50","Aug":"40","Sep":"46","Oct":"-9999","Nov":"-9999","Dec":"-9999"},"geometry":{"type":"Point","coordinates":[-117.44,49.7847]}},{"type":"Feature","properties":{"StationName":"NANCYGREEN","NativeID":"407","Elevation":"1397","Jan":"-9999","Feb":"-9999","Mar":"-9999","Apr":"-9999","May":"78","Jun":"85","Jul":"54","Aug":"37","Sep":"39","Oct":"-9999","Nov":"-9999","Dec":"-9999"},"geometry":{"type":"Point","coordinates":[-117.9942,49.2545]}},{"type":"Feature","properties":{"StationName":"NORNS(WIND)","NativeID":"408","Elevation":"2423","Jan":"-9999","Feb":"-9999","Mar":"-9999","Apr":"-9999","May":"7","Jun":"39","Jul":"41","Aug":"11","Sep":"12","Oct":"-9999","Nov":"-9999","Dec":"-9999"},"geometry":{"type":"Point","coordinates":[-117.787,49.5025]}},{"type":"Feature","properties":{"StationName":"ZZBLUELAKE","NativeID":"410","Elevation":"1301","Jan":"-9999","Feb":"-9999","Mar":"-9999","Apr":"-9999","May":"44","Jun":"57","Jul":"44","Aug":"39","Sep":"30","Oct":"-9999","Nov":"-9999","Dec":"-9999"},"geometry":{"type":"Point","coordinates":[-116.0217,50.1722]}},{"type":"Feature","properties":{"StationName":"PALLISER","NativeID":"411","Elevation":"1100","Jan":"-9999","Feb":"-9999","Mar":"-9999","Apr":"-9999","May":"46","Jun":"77","Jul":"45","Aug":"39","Sep":"38","Oct":"-9999","Nov":"-9999","Dec":"-9999"},"geometry":{"type":"Point","coordinates":[-115.658,50.49]}},{"type":"Feature","properties":{"StationName":"ELKO","NativeID":"412","Elevation":"775","Jan":"-9999","Feb":"-9999","Mar":"-9999","Apr":"-9999","May":"50","Jun":"72","Jul":"46","Aug":"31","Sep":"35","Oct":"-9999","Nov":"-9999","Dec":"-9999"},"geometry":{"type":"Point","coordinates":[-115.2433,49.2833]}},{"type":"Feature","properties":{"StationName":"ZZINVERMERE","NativeID":"413","Elevation":"835","Jan":"-9999","Feb":"-9999","Mar":"-9999","Apr":"-9999","May":"34","Jun":"46","Jul":"36","Aug":"28","Sep":"23","Oct":"-9999","Nov":"-9999","Dec":"-9999"},"geometry":{"type":"Point","coordinates":[-116.026667,50.508333]}},{"type":"Feature","properties":{"StationName":"ZZFLATHEAD","NativeID":"414","Elevation":"1216","Jan":"-9999","Feb":"-9999","Mar":"-9999","Apr":"-9999","May":"-9999","Jun":"-9999","Jul":"34","Aug":"36","Sep":"44","Oct":"-9999","Nov":"-9999","Dec":"-9999"},"geometry":{"type":"Point","coordinates":[-114.478385,49.001765]}},{"type":"Feature","properties":{"StationName":"ZZKIKOMUNP","NativeID":"416","Elevation":"794","Jan":"-9999","Feb":"-9999","Mar":"-9999","Apr":"-9999","May":"47","Jun":"55","Jul":"39","Aug":"27","Sep":"29","Oct":"-9999","Nov":"-9999","Dec":"-9999"},"geometry":{"type":"Point","coordinates":[-115.235506,49.240592]}},{"type":"Feature","properties":{"StationName":"TOBY","NativeID":"417","Elevation":"894","Jan":"-9999","Feb":"-9999","Mar":"-9999","Apr":"-9999","May":"36","Jun":"56","Jul":"33","Aug":"30","Sep":"31","Oct":"-9999","Nov":"-9999","Dec":"-9999"},"geometry":{"type":"Point","coordinates":[-116.0553,50.5128]}},{"type":"Feature","properties":{"StationName":"FLATHEAD2","NativeID":"418","Elevation":"1311","Jan":"-9999","Feb":"-9999","Mar":"-9999","Apr":"-9999","May":"47","Jun":"73","Jul":"42","Aug":"34","Sep":"45","Oct":"-9999","Nov":"-9999","Dec":"-9999"},"geometry":{"type":"Point","coordinates":[-114.5372,49.0708]}},{"type":"Feature","properties":{"StationName":"JOHNSONLAKE","NativeID":"419","Elevation":"853","Jan":"-9999","Feb":"-9999","Mar":"-9999","Apr":"-9999","May":"36","Jun":"53","Jul":"36","Aug":"28","Sep":"29","Oct":"-9999","Nov":"-9999","Dec":"-9999"},"geometry":{"type":"Point","coordinates":[-115.7367,49.922]}},{"type":"Feature","properties":{"StationName":"DEWARCREEK","NativeID":"421","Elevation":"1608","Jan":"-9999","Feb":"-9999","Mar":"-9999","Apr":"-9999","May":"69","Jun":"83","Jul":"52","Aug":"48","Sep":"55","Oct":"-9999","Nov":"-9999","Dec":"-9999"},"geometry":{"type":"Point","coordinates":[-116.383,49.7845]}},{"type":"Feature","properties":{"StationName":"ZZBULL","NativeID":"422","Elevation":"1326","Jan":"-9999","Feb":"-9999","Mar":"-9999","Apr":"-9999","May":"46","Jun":"74","Jul":"56","Aug":"43","Sep":"48","Oct":"-9999","Nov":"-9999","Dec":"-9999"},"geometry":{"type":"Point","coordinates":[-115.1388,49.9025]}},{"type":"Feature","properties":{"StationName":"BAKERHUB(W","NativeID":"423","Elevation":"2262","Jan":"-9999","Feb":"-9999","Mar":"-9999","Apr":"-9999","May":"19","Jun":"24","Jul":"14","Aug":"10","Sep":"4","Oct":"-9999","Nov":"-9999","Dec":"-9999"},"geometry":{"type":"Point","coordinates":[-115.6263,49.4562]}},{"type":"Feature","properties":{"StationName":"EMILYCREEK","NativeID":"425","Elevation":"1190","Jan":"-9999","Feb":"-9999","Mar":"-9999","Apr":"-9999","May":"38","Jun":"60","Jul":"33","Aug":"28","Sep":"39","Oct":"-9999","Nov":"-9999","Dec":"-9999"},"geometry":{"type":"Point","coordinates":[-115.9772,50.1451]}},{"type":"Feature","properties":{"StationName":"CRANBROOKFS","NativeID":"426","Elevation":"996","Jan":"-9999","Feb":"-9999","Mar":"-9999","Apr":"-9999","May":"38","Jun":"49","Jul":"32","Aug":"24","Sep":"30","Oct":"-9999","Nov":"-9999","Dec":"-9999"},"geometry":{"type":"Point","coordinates":[-115.848,49.6673]}},{"type":"Feature","properties":{"StationName":"NASSCAMP","NativeID":"427","Elevation":"191","Jan":"-9999","Feb":"-9999","Mar":"-9999","Apr":"-9999","May":"42","Jun":"51","Jul":"45","Aug":"71","Sep":"102","Oct":"-9999","Nov":"-9999","Dec":"-9999"},"geometry":{"type":"Point","coordinates":[-128.9933,55.2883]}},{"type":"Feature","properties":{"StationName":"KISPIOX","NativeID":"428","Elevation":"335","Jan":"-9999","Feb":"-9999","Mar":"-9999","Apr":"-9999","May":"60","Jun":"75","Jul":"73","Aug":"66","Sep":"63","Oct":"-9999","Nov":"-9999","Dec":"-9999"},"geometry":{"type":"Point","coordinates":[-127.6467,55.435]}},{"type":"Feature","properties":{"StationName":"CEDARVALE","NativeID":"429","Elevation":"274","Jan":"-9999","Feb":"-9999","Mar":"-9999","Apr":"-9999","May":"35","Jun":"39","Jul":"31","Aug":"44","Sep":"71","Oct":"-9999","Nov":"-9999","Dec":"-9999"},"geometry":{"type":"Point","coordinates":[-128.3133,55.0267]}},{"type":"Feature","properties":{"StationName":"VANDYKE","NativeID":"430","Elevation":"305","Jan":"-9999","Feb":"-9999","Mar":"-9999","Apr":"-9999","May":"63","Jun":"53","Jul":"54","Aug":"74","Sep":"104","Oct":"-9999","Nov":"-9999","Dec":"-9999"},"geometry":{"type":"Point","coordinates":[-129.0967,56.0167]}},{"type":"Feature","properties":{"StationName":"UPPERKISPIO","NativeID":"431","Elevation":"410","Jan":"-9999","Feb":"-9999","Mar":"-9999","Apr":"-9999","May":"42","Jun":"63","Jul":"59","Aug":"60","Sep":"58","Oct":"-9999","Nov":"-9999","Dec":"-9999"},"geometry":{"type":"Point","coordinates":[-128.0417,55.6]}},{"type":"Feature","properties":{"StationName":"BELL-IRVING","NativeID":"432","Elevation":"450","Jan":"-9999","Feb":"-9999","Mar":"-9999","Apr":"-9999","May":"52","Jun":"62","Jul":"79","Aug":"95","Sep":"107","Oct":"-9999","Nov":"-9999","Dec":"-9999"},"geometry":{"type":"Point","coordinates":[-129.2933,56.3483]}},{"type":"Feature","properties":{"StationName":"CRANBERRY","NativeID":"433","Elevation":"500","Jan":"-9999","Feb":"-9999","Mar":"-9999","Apr":"-9999","May":"42","Jun":"46","Jul":"45","Aug":"64","Sep":"79","Oct":"-9999","Nov":"-9999","Dec":"-9999"},"geometry":{"type":"Point","coordinates":[-128.705,55.5767]}},{"type":"Feature","properties":{"StationName":"ZZKELLYLAK","NativeID":"436","Elevation":"870","Jan":"-9999","Feb":"-9999","Mar":"-9999","Apr":"-9999","May":"28","Jun":"76","Jul":"82","Aug":"69","Sep":"39","Oct":"-9999","Nov":"-9999","Dec":"-9999"},"geometry":{"type":"Point","coordinates":[-120.032737,55.240291]}},{"type":"Feature","properties":{"StationName":"NOEL","NativeID":"437","Elevation":"988","Jan":"-9999","Feb":"-9999","Mar":"-9999","Apr":"-9999","May":"44","Jun":"56","Jul":"81","Aug":"63","Sep":"44","Oct":"-9999","Nov":"-9999","Dec":"-9999"},"geometry":{"type":"Point","coordinates":[-120.4861,55.2958]}},{"type":"Feature","properties":{"StationName":"ELKMOUNTAIN","NativeID":"438","Elevation":"437","Jan":"-9999","Feb":"-9999","Mar":"-9999","Apr":"-9999","May":"68","Jun":"109","Jul":"95","Aug":"65","Sep":"62","Oct":"-9999","Nov":"-9999","Dec":"-9999"},"geometry":{"type":"Point","coordinates":[-125.5114,59.3337]}},{"type":"Feature","properties":{"StationName":"FIRESIDE","NativeID":"440","Elevation":"731","Jan":"-9999","Feb":"-9999","Mar":"-9999","Apr":"-9999","May":"33","Jun":"53","Jul":"61","Aug":"52","Sep":"43","Oct":"-9999","Nov":"-9999","Dec":"-9999"},"geometry":{"type":"Point","coordinates":[-127.3349,59.7227]}},{"type":"Feature","properties":{"StationName":"ZZCOALRIVE","NativeID":"441","Elevation":"510","Jan":"-9999","Feb":"-9999","Mar":"-9999","Apr":"-9999","May":"30","Jun":"47","Jul":"49","Aug":"32","Sep":"-9999","Oct":"-9999","Nov":"-9999","Dec":"-9999"},"geometry":{"type":"Point","coordinates":[-126.916961,59.657382]}},{"type":"Feature","properties":{"StationName":"ZZGOODHOPE","NativeID":"443","Elevation":"771","Jan":"-9999","Feb":"-9999","Mar":"-9999","Apr":"-9999","May":"-9999","Jun":"70","Jul":"53","Aug":"45","Sep":"-9999","Oct":"-9999","Nov":"-9999","Dec":"-9999"},"geometry":{"type":"Point","coordinates":[-129.28767,59.294191]}},{"type":"Feature","properties":{"StationName":"KETCHIKA","NativeID":"444","Elevation":"687","Jan":"-9999","Feb":"-9999","Mar":"-9999","Apr":"-9999","May":"35","Jun":"43","Jul":"73","Aug":"48","Sep":"30","Oct":"-9999","Nov":"-9999","Dec":"-9999"},"geometry":{"type":"Point","coordinates":[-127.125,58.727]}},{"type":"Feature","properties":{"StationName":"BOYALAKE","NativeID":"445","Elevation":"730","Jan":"-9999","Feb":"-9999","Mar":"-9999","Apr":"-9999","May":"25","Jun":"37","Jul":"54","Aug":"35","Sep":"31","Oct":"-9999","Nov":"-9999","Dec":"-9999"},"geometry":{"type":"Point","coordinates":[-129.11,59.3683]}},{"type":"Feature","properties":{"StationName":"FROTHS/F(W","NativeID":"474","Elevation":"2164","Jan":"-9999","Feb":"-9999","Mar":"-9999","Apr":"-9999","May":"0","Jun":"0","Jul":"0","Aug":"0","Sep":"0","Oct":"-9999","Nov":"-9999","Dec":"-9999"},"geometry":{"type":"Point","coordinates":[-119.255,52.0106]}},{"type":"Feature","properties":{"StationName":"ZZBR304","NativeID":"524","Elevation":"8","Jan":"-9999","Feb":"-9999","Mar":"-9999","Apr":"-9999","May":"184","Jun":"205","Jul":"113","Aug":"144","Sep":"224","Oct":"-9999","Nov":"-9999","Dec":"-9999"},"geometry":{"type":"Point","coordinates":[-125.6,49.1]}},