{"type":"FeatureCollection","features":[{"type":"Feature","properties":{"StationName":"SUMMIT","NativeID":"11","Elevation":"857","JanuaryTmin":"6"},"geometry":{"type":"Point","coordinates":[-124.635237,48.932558]}},{"type":"Feature","properties":{"StationName":"MENZIESCAMP","NativeID":"19","Elevation":"438","JanuaryTmin":"-17"},"geometry":{"type":"Point","coordinates":[-125.7887,50.0486]}},{"type":"Feature","properties":{"StationName":"WOSSCAMP","NativeID":"21","Elevation":"70","JanuaryTmin":"2"},"geometry":{"type":"Point","coordinates":[-126.6,50.2]}},{"type":"Feature","properties":{"StationName":"BEAVERCREEK","NativeID":"37","Elevation":"100","JanuaryTmin":"-3"},"geometry":{"type":"Point","coordinates":[-124.9333,49.3775]}},{"type":"Feature","properties":{"StationName":"SALTSPRING2","NativeID":"45","Elevation":"34","JanuaryTmin":"5"},"geometry":{"type":"Point","coordinates":[-123.474,48.774]}},{"type":"Feature","properties":{"StationName":"SECHELTORCH","NativeID":"46","Elevation":"75","JanuaryTmin":"15"},"geometry":{"type":"Point","coordinates":[-123.719,49.45]}},{"type":"Feature","properties":{"StationName":"BOWSER","NativeID":"56","Elevation":"184","JanuaryTmin":"9"},"geometry":{"type":"Point","coordinates":[-124.7033,49.4367]}},{"type":"Feature","properties":{"StationName":"CEDAR","NativeID":"59","Elevation":"100","JanuaryTmin":"1"},"geometry":{"type":"Point","coordinates":[-123.875,49.0483]}},{"type":"Feature","properties":{"StationName":"HAIGCAMP","NativeID":"67","Elevation":"162","JanuaryTmin":"-5"},"geometry":{"type":"Point","coordinates":[-121.492,49.369]}},{"type":"Feature","properties":{"StationName":"UBCRESEARCH","NativeID":"72","Elevation":"98","JanuaryTmin":"3"},"geometry":{"type":"Point","coordinates":[-122.5733,49.265]}},{"type":"Feature","properties":{"StationName":"CHILLIWACKN","NativeID":"74","Elevation":"295","JanuaryTmin":"-6"},"geometry":{"type":"Point","coordinates":[-121.6633,49.0983]}},{"type":"Feature","properties":{"StationName":"ATLIN","NativeID":"111","Elevation":"729","JanuaryTmin":"-178"},"geometry":{"type":"Point","coordinates":[-133.6667,59.5833]}},{"type":"Feature","properties":{"StationName":"ISKUT","NativeID":"112","Elevation":"890","JanuaryTmin":"-148"},"geometry":{"type":"Point","coordinates":[-130.0083,57.8567]}},{"type":"Feature","properties":{"StationName":"BOBQUINNLK","NativeID":"113","Elevation":"609","JanuaryTmin":"-105"},"geometry":{"type":"Point","coordinates":[-130.2533,56.9833]}},{"type":"Feature","properties":{"StationName":"SIERRA","NativeID":"117","Elevation":"584","JanuaryTmin":"-224"},"geometry":{"type":"Point","coordinates":[-121.3967,58.8381]}},{"type":"Feature","properties":{"StationName":"NELSONFORKS","NativeID":"119","Elevation":"604","JanuaryTmin":"-201"},"geometry":{"type":"Point","coordinates":[-124.0985,59.6173]}},{"type":"Feature","properties":{"StationName":"TUMBLER(DENI","NativeID":"127","Elevation":"942","JanuaryTmin":"-126"},"geometry":{"type":"Point","coordinates":[-120.9341,55.0274]}},{"type":"Feature","properties":{"StationName":"HUDSONHOPE","NativeID":"132","Elevation":"704","JanuaryTmin":"-144"},"geometry":{"type":"Point","coordinates":[-121.9902,56.0347]}},{"type":"Feature","properties":{"StationName":"WONOWON","NativeID":"136","Elevation":"967","JanuaryTmin":"-146"},"geometry":{"type":"Point","coordinates":[-121.7654,56.7185]}},{"type":"Feature","properties":{"StationName":"FORTSTJAME","NativeID":"146","Elevation":"750","JanuaryTmin":"-130"},"geometry":{"type":"Point","coordinates":[-124.261,54.3941]}},{"type":"Feature","properties":{"StationName":"BEARLAKE","NativeID":"149","Elevation":"739","JanuaryTmin":"-127"},"geometry":{"type":"Point","coordinates":[-122.691,54.5094]}},{"type":"Feature","properties":{"StationName":"VANDERHOOF","NativeID":"158","Elevation":"678","JanuaryTmin":"-138"},"geometry":{"type":"Point","coordinates":[-124.0102,54.0555]}},{"type":"Feature","properties":{"StationName":"NORTHCHILCO","NativeID":"159","Elevation":"850","JanuaryTmin":"-111"},"geometry":{"type":"Point","coordinates":[-123.7541,54.1546]}},{"type":"Feature","properties":{"StationName":"GRASSYPLAIN","NativeID":"161","Elevation":"944","JanuaryTmin":"-99"},"geometry":{"type":"Point","coordinates":[-125.8667,53.9467]}},{"type":"Feature","properties":{"StationName":"HOUSTON(DUNG","NativeID":"162","Elevation":"608","JanuaryTmin":"-139"},"geometry":{"type":"Point","coordinates":[-126.6267,54.4117]}},{"type":"Feature","properties":{"StationName":"MOOSELAKE","NativeID":"165","Elevation":"1109","JanuaryTmin":"-163"},"geometry":{"type":"Point","coordinates":[-125.4122,53.0715]}},{"type":"Feature","properties":{"StationName":"PEDEN","NativeID":"178","Elevation":"747","JanuaryTmin":"-118"},"geometry":{"type":"Point","coordinates":[-126.5217,53.9867]}},{"type":"Feature","properties":{"StationName":"NADINA","NativeID":"179","Elevation":"954","JanuaryTmin":"-110"},"geometry":{"type":"Point","coordinates":[-126.9278,53.9425]}},{"type":"Feature","properties":{"StationName":"MCBRIDELAKE","NativeID":"180","Elevation":"815","JanuaryTmin":"-111"},"geometry":{"type":"Point","coordinates":[-127.4017,54.07]}},{"type":"Feature","properties":{"StationName":"BURNSLAKE8","NativeID":"181","Elevation":"830","JanuaryTmin":"-112"},"geometry":{"type":"Point","coordinates":[-125.755,54.2567]}},{"type":"Feature","properties":{"StationName":"GANOKWA","NativeID":"182","Elevation":"855","JanuaryTmin":"-121"},"geometry":{"type":"Point","coordinates":[-126.9483,54.805]}},{"type":"Feature","properties":{"StationName":"HIXON","NativeID":"187","Elevation":"615","JanuaryTmin":"-112"},"geometry":{"type":"Point","coordinates":[-122.591,53.4265]}},{"type":"Feature","properties":{"StationName":"MCGREGOR","NativeID":"191","Elevation":"638","JanuaryTmin":"-120"},"geometry":{"type":"Point","coordinates":[-121.8266,54.0778]}},{"type":"Feature","properties":{"StationName":"VALEMOUNT1","NativeID":"194","Elevation":"797","JanuaryTmin":"-110"},"geometry":{"type":"Point","coordinates":[-119.2973,52.87]}},{"type":"Feature","properties":{"StationName":"MCBRIDE","NativeID":"195","Elevation":"716","JanuaryTmin":"-89"},"geometry":{"type":"Point","coordinates":[-120.1522,53.295]}},{"type":"Feature","properties":{"StationName":"CATFISH","NativeID":"199","Elevation":"866","JanuaryTmin":"-107"},"geometry":{"type":"Point","coordinates":[-120.8567,53.5765]}},{"type":"Feature","properties":{"StationName":"VALEMOUNT2","NativeID":"200","Elevation":"1195","JanuaryTmin":"-86"},"geometry":{"type":"Point","coordinates":[-119.3148,52.7881]}},{"type":"Feature","properties":{"StationName":"TATLALAKE","NativeID":"208","Elevation":"945","JanuaryTmin":"-129"},"geometry":{"type":"Point","coordinates":[-124.605,51.9067]}},{"type":"Feature","properties":{"StationName":"ALEXISCREEK","NativeID":"209","Elevation":"791","JanuaryTmin":"-123"},"geometry":{"type":"Point","coordinates":[-123.2717,52.0767]}},{"type":"Feature","properties":{"StationName":"RISKECREEK","NativeID":"210","Elevation":"884","JanuaryTmin":"-120"},"geometry":{"type":"Point","coordinates":[-122.51,51.96]}},{"type":"Feature","properties":{"StationName":"ANAHIMLAKE","NativeID":"213","Elevation":"1096","JanuaryTmin":"-146"},"geometry":{"type":"Point","coordinates":[-125.3033,52.4567]}},{"type":"Feature","properties":{"StationName":"LONEBUTTE","NativeID":"218","Elevation":"1158","JanuaryTmin":"-88"},"geometry":{"type":"Point","coordinates":[-121.162,51.507]}},{"type":"Feature","properties":{"StationName":"GASPARD","NativeID":"222","Elevation":"1675","JanuaryTmin":"-101"},"geometry":{"type":"Point","coordinates":[-122.6617,51.4517]}},{"type":"Feature","properties":{"StationName":"MIDDLELAKE","NativeID":"226","Elevation":"915","JanuaryTmin":"-92"},"geometry":{"type":"Point","coordinates":[-124.875,51.7017]}},{"type":"Feature","properties":{"StationName":"GAVIN","NativeID":"227","Elevation":"1081","JanuaryTmin":"-76"},"geometry":{"type":"Point","coordinates":[-121.7417,52.47]}},{"type":"Feature","properties":{"StationName":"BENSON","NativeID":"228","Elevation":"1006","JanuaryTmin":"-81"},"geometry":{"type":"Point","coordinates":[-122.065,52.91]}},{"type":"Feature","properties":{"StationName":"HORSEFLY","NativeID":"230","Elevation":"701","JanuaryTmin":"-107"},"geometry":{"type":"Point","coordinates":[-121.3967,52.33]}},{"type":"Feature","properties":{"StationName":"COLDSCAURLA","NativeID":"232","Elevation":"1158","JanuaryTmin":"-111"},"geometry":{"type":"Point","coordinates":[-120.39,51.725]}},{"type":"Feature","properties":{"StationName":"TIMOTHY","NativeID":"234","Elevation":"1161","JanuaryTmin":"-74"},"geometry":{"type":"Point","coordinates":[-121.389,51.913]}},{"type":"Feature","properties":{"StationName":"YOUNGLAKE","NativeID":"235","Elevation":"1170","JanuaryTmin":"-89"},"geometry":{"type":"Point","coordinates":[-120.9976,51.2378]}},{"type":"Feature","properties":{"StationName":"CLEARWATER","NativeID":"239","Elevation":"396","JanuaryTmin":"-86"},"geometry":{"type":"Point","coordinates":[-120.095,51.6283]}},{"type":"Feature","properties":{"StationName":"EASTBARRIER","NativeID":"243","Elevation":"671","JanuaryTmin":"-91"},"geometry":{"type":"Point","coordinates":[-119.8817,51.2533]}},{"type":"Feature","properties":{"StationName":"DECEPTION","NativeID":"251","Elevation":"1170","JanuaryTmin":"-99"},"geometry":{"type":"Point","coordinates":[-120.608,51.967]}},{"type":"Feature","properties":{"StationName":"LIKELYRS","NativeID":"255","Elevation":"1046","JanuaryTmin":"-83"},"geometry":{"type":"Point","coordinates":[-121.5133,52.615]}},{"type":"Feature","properties":{"StationName":"BLUERIVERF","NativeID":"257","Elevation":"683","JanuaryTmin":"-96"},"geometry":{"type":"Point","coordinates":[-119.2983,52.12]}},{"type":"Feature","properties":{"StationName":"ZZAVOLA(NE","NativeID":"258","Elevation":"518","JanuaryTmin":"-74"},"geometry":{"type":"Point","coordinates":[-119.3267,51.7817]}},{"type":"Feature","properties":{"StationName":"MATHEW","NativeID":"263","Elevation":"1108","JanuaryTmin":"-73"},"geometry":{"type":"Point","coordinates":[-120.9117,52.91]}},{"type":"Feature","properties":{"StationName":"WELLSGRAY","NativeID":"266","Elevation":"975","JanuaryTmin":"-74"},"geometry":{"type":"Point","coordinates":[-120.2433,52.3417]}},{"type":"Feature","properties":{"StationName":"BERRY","NativeID":"267","Elevation":"1524","JanuaryTmin":"-98"},"geometry":{"type":"Point","coordinates":[-119.4133,51.9783]}},{"type":"Feature","properties":{"StationName":"GOSNEL","NativeID":"270","Elevation":"1859","JanuaryTmin":"-107"},"geometry":{"type":"Point","coordinates":[-119.175,52.4533]}},{"type":"Feature","properties":{"StationName":"THYNNE","NativeID":"279","Elevation":"1524","JanuaryTmin":"-81"},"geometry":{"type":"Point","coordinates":[-120.8667,49.715]}},{"type":"Feature","properties":{"StationName":"LILLOOET","NativeID":"280","Elevation":"402","JanuaryTmin":"-53"},"geometry":{"type":"Point","coordinates":[-121.8883,50.6717]}},{"type":"Feature","properties":{"StationName":"BOTANIE","NativeID":"281","Elevation":"1554","JanuaryTmin":"-71"},"geometry":{"type":"Point","coordinates":[-121.57,50.4]}},{"type":"Feature","properties":{"StationName":"BRENDAMINES","NativeID":"283","Elevation":"1493","JanuaryTmin":"-90"},"geometry":{"type":"Point","coordinates":[-119.9933,49.8683]}},{"type":"Feature","properties":{"StationName":"TURTLE","NativeID":"286","Elevation":"640","JanuaryTmin":"-69"},"geometry":{"type":"Point","coordinates":[-119.63,50.8033]}},{"type":"Feature","properties":{"StationName":"GLIMPSE","NativeID":"291","Elevation":"1311","JanuaryTmin":"-81"},"geometry":{"type":"Point","coordinates":[-120.2883,50.27]}},{"type":"Feature","properties":{"StationName":"D'ARCY","NativeID":"292","Elevation":"346","JanuaryTmin":"-41"},"geometry":{"type":"Point","coordinates":[-122.498,50.5217]}},{"type":"Feature","properties":{"StationName":"MERRITTRS","NativeID":"294","Elevation":"640","JanuaryTmin":"-60"},"geometry":{"type":"Point","coordinates":[-120.7457,50.0875]}},{"type":"Feature","properties":{"StationName":"LYTTONFS","NativeID":"297","Elevation":"295","JanuaryTmin":"-41"},"geometry":{"type":"Point","coordinates":[-121.5867,50.2317]}},{"type":"Feature","properties":{"StationName":"FINTRY","NativeID":"298","Elevation":"670","JanuaryTmin":"-41"},"geometry":{"type":"Point","coordinates":[-119.48,50.2067]}},{"type":"Feature","properties":{"StationName":"GOLDBRIDGE","NativeID":"300","Elevation":"731","JanuaryTmin":"-45"},"geometry":{"type":"Point","coordinates":[-122.835,50.8533]}},{"type":"Feature","properties":{"StationName":"PEMBERTONBA","NativeID":"301","Elevation":"38","JanuaryTmin":"-44"},"geometry":{"type":"Point","coordinates":[-122.526,50.3806]}},{"type":"Feature","properties":{"StationName":"LEIGHTONLK","NativeID":"307","Elevation":"1204","JanuaryTmin":"-120"},"geometry":{"type":"Point","coordinates":[-120.8367,50.6167]}},{"type":"Feature","properties":{"StationName":"MCLEANLK.","NativeID":"311","Elevation":"1128","JanuaryTmin":"-87"},"geometry":{"type":"Point","coordinates":[-121.3583,50.7917]}},{"type":"Feature","properties":{"StationName":"NAHATLATCH","NativeID":"316","Elevation":"1400","JanuaryTmin":"-53"},"geometry":{"type":"Point","coordinates":[-122.0207,49.9018]}},{"type":"Feature","properties":{"StationName":"ALLISONPASS","NativeID":"317","Elevation":"1215","JanuaryTmin":"-89"},"geometry":{"type":"Point","coordinates":[-120.7667,49.0633]}},{"type":"Feature","properties":{"StationName":"GREENSTONEH","NativeID":"321","Elevation":"1829","JanuaryTmin":"-157"},"geometry":{"type":"Point","coordinates":[-120.64,50.6117]}},{"type":"Feature","properties":{"StationName":"AFTON","NativeID":"322","Elevation":"780","JanuaryTmin":"-64"},"geometry":{"type":"Point","coordinates":[-120.4817,50.6733]}},{"type":"Feature","properties":{"StationName":"STEMWINDER","NativeID":"325","Elevation":"579","JanuaryTmin":"-59"},"geometry":{"type":"Point","coordinates":[-120.1533,49.38]}},{"type":"Feature","properties":{"StationName":"PASKALAKE","NativeID":"326","Elevation":"1440","JanuaryTmin":"-78"},"geometry":{"type":"Point","coordinates":[-120.674,50.504]}},{"type":"Feature","properties":{"StationName":"PENTICTONRS","NativeID":"328","Elevation":"427","JanuaryTmin":"-39"},"geometry":{"type":"Point","coordinates":[-119.5533,49.5183]}},{"type":"Feature","properties":{"StationName":"MCCUDDY","NativeID":"334","Elevation":"1067","JanuaryTmin":"-71"},"geometry":{"type":"Point","coordinates":[-119.415,49.1483]}},{"type":"Feature","properties":{"StationName":"ZZKALLK.I","NativeID":"341","Elevation":"457","JanuaryTmin":"-40"},"geometry":{"type":"Point","coordinates":[-119.2767,50.2367]}},{"type":"Feature","properties":{"StationName":"SALMONARM","NativeID":"346","Elevation":"527","JanuaryTmin":"-61"},"geometry":{"type":"Point","coordinates":[-119.235,50.685]}},{"type":"Feature","properties":{"StationName":"TSARCREEK","NativeID":"361","Elevation":"1200","JanuaryTmin":"-79"},"geometry":{"type":"Point","coordinates":[-118.1025,51.9972]}},{"type":"Feature","properties":{"StationName":"MABELLKII","NativeID":"362","Elevation":"488","JanuaryTmin":"-56"},"geometry":{"type":"Point","coordinates":[-118.7733,50.3517]}},{"type":"Feature","properties":{"StationName":"REVELSTOKEF","NativeID":"363","Elevation":"680","JanuaryTmin":"-51"},"geometry":{"type":"Point","coordinates":[-118.2172,51.0603]}},{"type":"Feature","properties":{"StationName":"WHISKEY","NativeID":"366","Elevation":"1300","JanuaryTmin":"-106"},"geometry":{"type":"Point","coordinates":[-116.785,51.0653]}},{"type":"Feature","properties":{"StationName":"MARION","NativeID":"367","Elevation":"1300","JanuaryTmin":"-140"},"geometry":{"type":"Point","coordinates":[-116.3638,51.0422]}},{"type":"Feature","properties":{"StationName":"ZZDRIFTWOOD","NativeID":"373","Elevation":"938","JanuaryTmin":"-101"},"geometry":{"type":"Point","coordinates":[-116.338,50.8458]}},{"type":"Feature","properties":{"StationName":"SUCCOURCREE","NativeID":"374","Elevation":"1000","JanuaryTmin":"-110"},"geometry":{"type":"Point","coordinates":[-117.5417,51.7162]}},{"type":"Feature","properties":{"StationName":"ZZNAKUSPRS","NativeID":"377","Elevation":"651","JanuaryTmin":"-43"},"geometry":{"type":"Point","coordinates":[-117.7763,50.2525]}},{"type":"Feature","properties":{"StationName":"HOWSER","NativeID":"384","Elevation":"1300","JanuaryTmin":"-89"},"geometry":{"type":"Point","coordinates":[-117.0017,50.3663]}},{"type":"Feature","properties":{"StationName":"BEAVERDELL","NativeID":"390","Elevation":"807","JanuaryTmin":"-96"},"geometry":{"type":"Point","coordinates":[-119.0883,49.457]}},{"type":"Feature","properties":{"StationName":"GRANDFORKS","NativeID":"392","Elevation":"630","JanuaryTmin":"-61"},"geometry":{"type":"Point","coordinates":[-118.4156,49.0307]}},{"type":"Feature","properties":{"StationName":"ROCKCREEK","NativeID":"394","Elevation":"609","JanuaryTmin":"-93"},"geometry":{"type":"Point","coordinates":[-118.9367,49.052]}},{"type":"Feature","properties":{"StationName":"CRESTON","NativeID":"398","Elevation":"683","JanuaryTmin":"-60"},"geometry":{"type":"Point","coordinates":[-116.4958,49.038]}},{"type":"Feature","properties":{"StationName":"GOATFELL","NativeID":"401","Elevation":"1098","JanuaryTmin":"-66"},"geometry":{"type":"Point","coordinates":[-116.1638,49.1253]}},{"type":"Feature","properties":{"StationName":"PENDOREILLE","NativeID":"402","Elevation":"813","JanuaryTmin":"-48"},"geometry":{"type":"Point","coordinates":[-117.4128,49.053]}},{"type":"Feature","properties":{"StationName":"SMALLWOOD","NativeID":"404","Elevation":"997","JanuaryTmin":"-55"},"geometry":{"type":"Point","coordinates":[-117.4475,49.4967]}},{"type":"Feature","properties":{"StationName":"SLOCAN","NativeID":"406","Elevation":"1230","JanuaryTmin":"-72"},"geometry":{"type":"Point","coordinates":[-117.44,49.7847]}},{"type":"Feature","properties":{"StationName":"NANCYGREEN","NativeID":"407","Elevation":"1397","JanuaryTmin":"-85"},"geometry":{"type":"Point","coordinates":[-117.9942,49.2545]}},{"type":"Feature","properties":{"StationName":"NORNS(WIND)","NativeID":"408","Elevation":"2423","JanuaryTmin":"-107"},"geometry":{"type":"Point","coordinates":[-117.787,49.5025]}},{"type":"Feature","properties":{"StationName":"PALLISER","NativeID":"411","Elevation":"1100","JanuaryTmin":"-160"},"geometry":{"type":"Point","coordinates":[-115.658,50.49]}},{"type":"Feature","properties":{"StationName":"ELKO","NativeID":"412","Elevation":"775","JanuaryTmin":"-87"},"geometry":{"type":"Point","coordinates":[-115.2433,49.2833]}},{"type":"Feature","properties":{"StationName":"TOBY","NativeID":"417","Elevation":"894","JanuaryTmin":"-103"},"geometry":{"type":"Point","coordinates":[-116.0553,50.5128]}},{"type":"Feature","properties":{"StationName":"JOHNSONLAKE","NativeID":"419","Elevation":"853","JanuaryTmin":"-100"},"geometry":{"type":"Point","coordinates":[-115.7367,49.922]}},{"type":"Feature","properties":{"StationName":"DEWARCREEK","NativeID":"421","Elevation":"1608","JanuaryTmin":"-97"},"geometry":{"type":"Point","coordinates":[-116.383,49.7845]}},{"type":"Feature","properties":{"StationName":"BAKERHUB(W","NativeID":"423","Elevation":"2262","JanuaryTmin":"-116"},"geometry":{"type":"Point","coordinates":[-115.6263,49.4562]}},{"type":"Feature","properties":{"StationName":"EMILYCREEK","NativeID":"425","Elevation":"1190","JanuaryTmin":"-121"},"geometry":{"type":"Point","coordinates":[-115.9772,50.1451]}},{"type":"Feature","properties":{"StationName":"CRANBROOKFS","NativeID":"426","Elevation":"996","JanuaryTmin":"-93"},"geometry":{"type":"Point","coordinates":[-115.848,49.6673]}},{"type":"Feature","properties":{"StationName":"NASSCAMP","NativeID":"427","Elevation":"191","JanuaryTmin":"-79"},"geometry":{"type":"Point","coordinates":[-128.9933,55.2883]}},{"type":"Feature","properties":{"StationName":"KISPIOX","NativeID":"428","Elevation":"335","JanuaryTmin":"-103"},"geometry":{"type":"Point","coordinates":[-127.6467,55.435]}},{"type":"Feature","properties":{"StationName":"CEDARVALE","NativeID":"429","Elevation":"274","JanuaryTmin":"-75"},"geometry":{"type":"Point","coordinates":[-128.3133,55.0267]}},{"type":"Feature","properties":{"StationName":"UPPERKISPIO","NativeID":"431","Elevation":"410","JanuaryTmin":"-108"},"geometry":{"type":"Point","coordinates":[-128.0417,55.6]}},{"type":"Feature","properties":{"StationName":"FORTNELSON","NativeID":"599","Elevation":"382","JanuaryTmin":"-233"},"geometry":{"type":"Point","coordinates":[-122.575,58.8376]}},{"type":"Feature","properties":{"StationName":"ROUNDPRAIRI","NativeID":"788","Elevation":"1647","JanuaryTmin":"-110"},"geometry":{"type":"Point","coordinates":[-114.8997,50.0867]}},{"type":"Feature","properties":{"StationName":"NEGROCK","NativeID":"789","Elevation":"1572","JanuaryTmin":"-109"},"geometry":{"type":"Point","coordinates":[-115.9872,49.4539]}},{"type":"Feature","properties":{"StationName":"WHITERIVER","NativeID":"790","Elevation":"1357","JanuaryTmin":"-136"},"geometry":{"type":"Point","coordinates":[-115.266,50.185]}},{"type":"Feature","properties":{"StationName":"CHERRYLAKE","NativeID":"791","Elevation":"1372","JanuaryTmin":"-94"},"geometry":{"type":"Point","coordinates":[-115.542,49.188]}},{"type":"Feature","properties":{"StationName":"CARIBOOCK","NativeID":"793","Elevation":"1518","JanuaryTmin":"-122"},"geometry":{"type":"Point","coordinates":[-117.2303,51.1767]}},{"type":"Feature","properties":{"StationName":"BRISCO","NativeID":"865","Elevation":"930","JanuaryTmin":"-103"},"geometry":{"type":"Point","coordinates":[-116.2449,50.8193]}},{"type":"Feature","properties":{"StationName":"BLAEBERRY","NativeID":"866","Elevation":"861","JanuaryTmin":"-113"},"geometry":{"type":"Point","coordinates":[-117.0571,51.4357]}},{"type":"Feature","properties":{"StationName":"Akienrthe","NativeID":"AKI","Elevation":"760","JanuaryTmin":"-187"},"geometry":{"type":"Point","coordinates":[-124.895556,57.188333]}},{"type":"Feature","properties":{"StationName":"AikenLake","NativeID":"AKN","Elevation":"970","JanuaryTmin":"-171"},"geometry":{"type":"Point","coordinates":[-125.741667,56.436667]}},{"type":"Feature","properties":{"StationName":"AlouetteLak","NativeID":"ALU","Elevation":"125","JanuaryTmin":"7"},"geometry":{"type":"Point","coordinates":[-122.486214,49.287442]}},{"type":"Feature","properties":{"StationName":"ElsieLkfor","NativeID":"ASH","Elevation":"340","JanuaryTmin":"0"},"geometry":{"type":"Point","coordinates":[-125.143833,49.440556]}},{"type":"Feature","properties":{"StationName":"BarnesCk","NativeID":"BAR","Elevation":"1620","JanuaryTmin":"-97"},"geometry":{"type":"Point","coordinates":[-118.349217,50.066017]}},{"type":"Feature","properties":{"StationName":"BearCkRes.","NativeID":"BCK","Elevation":"419","JanuaryTmin":"-6"},"geometry":{"type":"Point","coordinates":[-123.913889,48.503333]}},{"type":"Feature","properties":{"StationName":"ColumbiaR.","NativeID":"BIR","Elevation":"410","JanuaryTmin":"-27"},"geometry":{"type":"Point","coordinates":[-117.716389,49.177778]}},{"type":"Feature","properties":{"StationName":"BralorneUpp","NativeID":"BLN","Elevation":"1920","JanuaryTmin":"-88"},"geometry":{"type":"Point","coordinates":[-122.74525,50.799278]}},{"type":"Feature","properties":{"StationName":"BrendaMines","NativeID":"BMN","Elevation":"1460","JanuaryTmin":"-67"},"geometry":{"type":"Point","coordinates":[-119.988889,49.868056]}},{"type":"Feature","properties":{"StationName":"BridgeR.bl","NativeID":"BRI","Elevation":"1350","JanuaryTmin":"-133"},"geometry":{"type":"Point","coordinates":[-123.450278,50.856111]}},{"type":"Feature","properties":{"StationName":"BullR.@Wa","NativeID":"BUL","Elevation":"800","JanuaryTmin":"-81"},"geometry":{"type":"Point","coordinates":[-115.363889,49.493056]}},{"type":"Feature","properties":{"StationName":"BeaverR.nr","NativeID":"BVR","Elevation":"780","JanuaryTmin":"-114"},"geometry":{"type":"Point","coordinates":[-117.461667,51.509722]}},{"type":"Feature","properties":{"StationName":"CheakamusR.","NativeID":"CHK","Elevation":"640","JanuaryTmin":"-35"},"geometry":{"type":"Point","coordinates":[-123.033889,50.079722]}},{"type":"Feature","properties":{"StationName":"ChowadeUppe","NativeID":"CHW","Elevation":"1480","JanuaryTmin":"-143"},"geometry":{"type":"Point","coordinates":[-122.778867,56.636833]}},{"type":"Feature","properties":{"StationName":"ClowhomFall","NativeID":"CLO","Elevation":"10","JanuaryTmin":"10"},"geometry":{"type":"Point","coordinates":[-123.522222,49.708333]}},{"type":"Feature","properties":{"StationName":"ClowhomR.n","NativeID":"CLW","Elevation":"125","JanuaryTmin":"-13"},"geometry":{"type":"Point","coordinates":[-123.420278,49.787778]}},{"type":"Feature","properties":{"StationName":"DaisyLakeD","NativeID":"CMS","Elevation":"390","JanuaryTmin":"-32"},"geometry":{"type":"Point","coordinates":[-123.134722,49.975]}},{"type":"Feature","properties":{"StationName":"UpperCheaka","NativeID":"CMU","Elevation":"880","JanuaryTmin":"-39"},"geometry":{"type":"Point","coordinates":[-123.133333,50.122222]}},{"type":"Feature","properties":{"StationName":"ComoxDamfo","NativeID":"CMX","Elevation":"135","JanuaryTmin":"13"},"geometry":{"type":"Point","coordinates":[-125.094444,49.643056]}},{"type":"Feature","properties":{"StationName":"CoquitlamLa","NativeID":"COQ","Elevation":"160","JanuaryTmin":"9"},"geometry":{"type":"Point","coordinates":[-122.779625,49.355586]}},{"type":"Feature","properties":{"StationName":"ComoxLake@","NativeID":"COX","Elevation":"140","JanuaryTmin":"8"},"geometry":{"type":"Point","coordinates":[-125.08,49.64]}},{"type":"Feature","properties":{"StationName":"CoquitlamR.","NativeID":"CQM","Elevation":"290","JanuaryTmin":"-11"},"geometry":{"type":"Point","coordinates":[-122.792486,49.488294]}},{"type":"Feature","properties":{"StationName":"Cruickshank","NativeID":"CRU","Elevation":"150","JanuaryTmin":"-6"},"geometry":{"type":"Point","coordinates":[-125.200833,49.579167]}},{"type":"Feature","properties":{"StationName":"CoursierLak","NativeID":"CSC","Elevation":"1265","JanuaryTmin":"-98"},"geometry":{"type":"Point","coordinates":[-118.100556,50.721389]}},{"type":"Feature","properties":{"StationName":"DuncanR.bl","NativeID":"DBC","Elevation":"590","JanuaryTmin":"-57"},"geometry":{"type":"Point","coordinates":[-117.048936,50.638383]}},{"type":"Feature","properties":{"StationName":"DuncanRes.","NativeID":"DCN","Elevation":"580","JanuaryTmin":"-40"},"geometry":{"type":"Point","coordinates":[-116.948333,50.255]}},{"type":"Feature","properties":{"StationName":"EastCk-sn","NativeID":"EAC","Elevation":"2030","JanuaryTmin":"-115"},"geometry":{"type":"Point","coordinates":[-116.929733,50.6396]}},{"type":"Feature","properties":{"StationName":"ElkR.abCa","NativeID":"ELK","Elevation":"270","JanuaryTmin":"-21"},"geometry":{"type":"Point","coordinates":[-125.812897,49.857128]}},{"type":"Feature","properties":{"StationName":"ElkR.@Fer","NativeID":"ELR","Elevation":"1000","JanuaryTmin":"-93"},"geometry":{"type":"Point","coordinates":[-115.07,49.51]}},{"type":"Feature","properties":{"StationName":"EricCk","NativeID":"ERC","Elevation":"280","JanuaryTmin":"-17"},"geometry":{"type":"Point","coordinates":[-125.288167,49.605361]}},{"type":"Feature","properties":{"StationName":"FideltyMtn.","NativeID":"FDL","Elevation":"1800","JanuaryTmin":"-104"},"geometry":{"type":"Point","coordinates":[-117.700617,51.237417]}},{"type":"Feature","properties":{"StationName":"FinlayR.ab","NativeID":"FIN","Elevation":"711","JanuaryTmin":"-180"},"geometry":{"type":"Point","coordinates":[-125.249167,57.125]}},{"type":"Feature","properties":{"StationName":"FloeLk","NativeID":"FLK","Elevation":"2090","JanuaryTmin":"-132"},"geometry":{"type":"Point","coordinates":[-116.137117,51.059917]}},{"type":"Feature","properties":{"StationName":"KootenayR.","NativeID":"FST","Elevation":"770","JanuaryTmin":"-92"},"geometry":{"type":"Point","coordinates":[-115.634611,49.611228]}},{"type":"Feature","properties":{"StationName":"GoldR.nrU","NativeID":"GLD","Elevation":"10","JanuaryTmin":"11"},"geometry":{"type":"Point","coordinates":[-126.106111,49.705833]}},{"type":"Feature","properties":{"StationName":"GoldCk","NativeID":"GOC","Elevation":"794","JanuaryTmin":"-25"},"geometry":{"type":"Point","coordinates":[-122.477361,49.446556]}},{"type":"Feature","properties":{"StationName":"GoldstreamR","NativeID":"GOL","Elevation":"600","JanuaryTmin":"-93"},"geometry":{"type":"Point","coordinates":[-118.596994,51.668431]}},{"type":"Feature","properties":{"StationName":"GreenMtn.","NativeID":"GRN","Elevation":"1780","JanuaryTmin":"-55"},"geometry":{"type":"Point","coordinates":[-122.924611,50.795583]}},{"type":"Feature","properties":{"StationName":"GlaciernrR","NativeID":"GRP","Elevation":"1182","JanuaryTmin":"-101"},"geometry":{"type":"Point","coordinates":[-117.508611,51.269722]}},{"type":"Feature","properties":{"StationName":"KinbasketLa","NativeID":"GRT","Elevation":"770","JanuaryTmin":"-74"},"geometry":{"type":"Point","coordinates":[-117.878306,51.877056]}},{"type":"Feature","properties":{"StationName":"HeberR.nr","NativeID":"HEB","Elevation":"215","JanuaryTmin":"1"},"geometry":{"type":"Point","coordinates":[-125.986389,49.815278]}},{"type":"Feature","properties":{"StationName":"HalfwayR.@","NativeID":"HFF","Elevation":"480","JanuaryTmin":"-210"},"geometry":{"type":"Point","coordinates":[-121.629444,56.25085]}},{"type":"Feature","properties":{"StationName":"HornCk","NativeID":"HRN","Elevation":"1450","JanuaryTmin":"-176"},"geometry":{"type":"Point","coordinates":[-123.606,56.734767]}},{"type":"Feature","properties":{"StationName":"HurleyR.ab","NativeID":"HUR","Elevation":"990","JanuaryTmin":"7"},"geometry":{"type":"Point","coordinates":[-122.942156,50.730489]}},{"type":"Feature","properties":{"StationName":"Illecilliwae","NativeID":"ILL","Elevation":"500","JanuaryTmin":"-79"},"geometry":{"type":"Point","coordinates":[-118.082733,51.013331]}},{"type":"Feature","properties":{"StationName":"JohnHartsu","NativeID":"JHT","Elevation":"15","JanuaryTmin":"8"},"geometry":{"type":"Point","coordinates":[-125.308611,50.043333]}},{"type":"Feature","properties":{"StationName":"KwadachaNor","NativeID":"KWA","Elevation":"1554","JanuaryTmin":"-143"},"geometry":{"type":"Point","coordinates":[-125.073167,57.623333]}},{"type":"Feature","properties":{"StationName":"LaJoieUpper","NativeID":"LJU","Elevation":"1829","JanuaryTmin":"-94"},"geometry":{"type":"Point","coordinates":[-123.1835,50.859333]}},{"type":"Feature","properties":{"StationName":"McQueTerrac","NativeID":"MCQ","Elevation":"1200","JanuaryTmin":"-175"},"geometry":{"type":"Point","coordinates":[-123.404167,56.9815]}},{"type":"Feature","properties":{"StationName":"MesilinkaR.","NativeID":"MES","Elevation":"728","JanuaryTmin":"-171"},"geometry":{"type":"Point","coordinates":[-124.644167,56.245]}},{"type":"Feature","properties":{"StationName":"MissionRidg","NativeID":"MIS","Elevation":"1850","JanuaryTmin":"-93"},"geometry":{"type":"Point","coordinates":[-122.207694,50.762556]}},{"type":"Feature","properties":{"StationName":"MoberlyR.@","NativeID":"MOB","Elevation":"600","JanuaryTmin":"-195"},"geometry":{"type":"Point","coordinates":[-121.346944,56.093056]}},{"type":"Feature","properties":{"StationName":"MolsonCk","NativeID":"MOL","Elevation":"1935","JanuaryTmin":"-127"},"geometry":{"type":"Point","coordinates":[-118.22575,52.22165]}},{"type":"Feature","properties":{"StationName":"MorrisseyRi","NativeID":"MOR","Elevation":"1860","JanuaryTmin":"-109"},"geometry":{"type":"Point","coordinates":[-114.975,49.447222]}},{"type":"Feature","properties":{"StationName":"Mt.Revelsto","NativeID":"MTR","Elevation":"1850","JanuaryTmin":"-106"},"geometry":{"type":"Point","coordinates":[-118.150278,51.039167]}},{"type":"Feature","properties":{"StationName":"NationR.nr","NativeID":"NAT","Elevation":"725","JanuaryTmin":"-141"},"geometry":{"type":"Point","coordinates":[-123.61,55.43]}},{"type":"Feature","properties":{"StationName":"NorthTyaugh","NativeID":"NTY","Elevation":"1969","JanuaryTmin":"-106"},"geometry":{"type":"Point","coordinates":[-122.793917,51.147528]}},{"type":"Feature","properties":{"StationName":"OminicaR.a","NativeID":"OMI","Elevation":"715","JanuaryTmin":"-173"},"geometry":{"type":"Point","coordinates":[-124.56,55.94]}},{"type":"Feature","properties":{"StationName":"OsilinkaR.","NativeID":"OSL","Elevation":"775","JanuaryTmin":"-178"},"geometry":{"type":"Point","coordinates":[-124.801389,56.126667]}},{"type":"Feature","properties":{"StationName":"OspikaR.ab","NativeID":"OSP","Elevation":"750","JanuaryTmin":"-162"},"geometry":{"type":"Point","coordinates":[-123.93,56.46]}},{"type":"Feature","properties":{"StationName":"PackR.@ou","NativeID":"PAK","Elevation":"675","JanuaryTmin":"-138"},"geometry":{"type":"Point","coordinates":[-123.036608,54.997844]}},{"type":"Feature","properties":{"StationName":"ParsnipUppe","NativeID":"PAR","Elevation":"790","JanuaryTmin":"-132"},"geometry":{"type":"Point","coordinates":[-122.145833,54.6125]}},{"type":"Feature","properties":{"StationName":"ParkMountai","NativeID":"PKM","Elevation":"1890","JanuaryTmin":"-100"},"geometry":{"type":"Point","coordinates":[-118.619722,50.447222]}},{"type":"Feature","properties":{"StationName":"GMSHudson's","NativeID":"PMD","Elevation":"720","JanuaryTmin":"-131"},"geometry":{"type":"Point","coordinates":[-122.1835,56.0125]}},{"type":"Feature","properties":{"StationName":"PinkMtn.","NativeID":"PNK","Elevation":"1204","JanuaryTmin":"-160"},"geometry":{"type":"Point","coordinates":[-122.3535,57.001967]}},{"type":"Feature","properties":{"StationName":"ParsnipR.a","NativeID":"PRS","Elevation":"700","JanuaryTmin":"-143"},"geometry":{"type":"Point","coordinates":[-122.9,55.08]}},{"type":"Feature","properties":{"StationName":"PulpitLk","NativeID":"PUL","Elevation":"1311","JanuaryTmin":"-169"},"geometry":{"type":"Point","coordinates":[-126.748783,57.548283]}},{"type":"Feature","properties":{"StationName":"PinePass","NativeID":"PYN","Elevation":"1400","JanuaryTmin":"-129"},"geometry":{"type":"Point","coordinates":[-122.637333,55.353]}},{"type":"Feature","properties":{"StationName":"Queen'sBay","NativeID":"QBY","Elevation":"545","JanuaryTmin":"-21"},"geometry":{"type":"Point","coordinates":[-116.929722,49.654444]}},{"type":"Feature","properties":{"StationName":"QuinsamR.@","NativeID":"QIN","Elevation":"280","JanuaryTmin":"-13"},"geometry":{"type":"Point","coordinates":[-125.5,49.93]}},{"type":"Feature","properties":{"StationName":"QuinsamR.n","NativeID":"QSM","Elevation":"15","JanuaryTmin":"-2"},"geometry":{"type":"Point","coordinates":[-125.300386,50.029272]}},{"type":"Feature","properties":{"StationName":"SalmonR.ab","NativeID":"SAM","Elevation":"215","JanuaryTmin":"-11"},"geometry":{"type":"Point","coordinates":[-125.672222,50.091667]}},{"type":"Feature","properties":{"StationName":"StrathconaD","NativeID":"SCA","Elevation":"227","JanuaryTmin":"4"},"geometry":{"type":"Point","coordinates":[-125.583889,49.996944]}},{"type":"Feature","properties":{"StationName":"SugarLakeR","NativeID":"SGL","Elevation":"675","JanuaryTmin":"-49"},"geometry":{"type":"Point","coordinates":[-118.53,50.35]}},{"type":"Feature","properties":{"StationName":"St.LeonCk","NativeID":"SLK","Elevation":"1800","JanuaryTmin":"-106"},"geometry":{"type":"Point","coordinates":[-117.7012,50.434167]}},{"type":"Feature","properties":{"StationName":"Shalalth","NativeID":"SON","Elevation":"290","JanuaryTmin":"-27"},"geometry":{"type":"Point","coordinates":[-122.242383,50.728081]}},{"type":"Feature","properties":{"StationName":"StaveR.ab","NativeID":"STA","Elevation":"330","JanuaryTmin":"-12"},"geometry":{"type":"Point","coordinates":[-122.321944,49.556111]}},{"type":"Feature","properties":{"StationName":"StaveR.Upp","NativeID":"STV","Elevation":"930","JanuaryTmin":"-22"},"geometry":{"type":"Point","coordinates":[-122.402056,49.623667]}},{"type":"Feature","properties":{"StationName":"Chilliwack","NativeID":"T12","Elevation":"11","JanuaryTmin":"9"},"geometry":{"type":"Point","coordinates":[-121.940556,49.156111]}},{"type":"Feature","properties":{"StationName":"NorthDelta","NativeID":"T13","Elevation":"111","JanuaryTmin":"17"},"geometry":{"type":"Point","coordinates":[-122.901667,49.158333]}},{"type":"Feature","properties":{"StationName":"SurreyEast","NativeID":"T15","Elevation":"79","JanuaryTmin":"13"},"geometry":{"type":"Point","coordinates":[-122.693333,49.132778]}},{"type":"Feature","properties":{"StationName":"RichmondSou","NativeID":"T17","Elevation":"5","JanuaryTmin":"16"},"geometry":{"type":"Point","coordinates":[-123.108056,49.141667]}},{"type":"Feature","properties":{"StationName":"BurnabySout","NativeID":"T18","Elevation":"145","JanuaryTmin":"19"},"geometry":{"type":"Point","coordinates":[-122.9825,49.215556]}},{"type":"Feature","properties":{"StationName":"PittMeadows","NativeID":"T20","Elevation":"20","JanuaryTmin":"7"},"geometry":{"type":"Point","coordinates":[-122.709167,49.245278]}},{"type":"Feature","properties":{"StationName":"LangleyCent","NativeID":"T27","Elevation":"82","JanuaryTmin":"10"},"geometry":{"type":"Point","coordinates":[-122.566389,49.096111]}},{"type":"Feature","properties":{"StationName":"HopeAirport","NativeID":"T29","Elevation":"131","JanuaryTmin":"-1"},"geometry":{"type":"Point","coordinates":[-121.499444,49.369722]}},{"type":"Feature","properties":{"StationName":"MapleRidge","NativeID":"T30","Elevation":"100","JanuaryTmin":"7"},"geometry":{"type":"Point","coordinates":[-122.581944,49.214722]}},{"type":"Feature","properties":{"StationName":"VancouverAi","NativeID":"T31","Elevation":"5","JanuaryTmin":"21"},"geometry":{"type":"Point","coordinates":[-123.1525,49.186389]}},{"type":"Feature","properties":{"StationName":"AbbotsfordA","NativeID":"T34","Elevation":"58","JanuaryTmin":"14"},"geometry":{"type":"Point","coordinates":[-122.343889,49.023611]}},{"type":"Feature","properties":{"StationName":"AshcroftRan","NativeID":"T36","Elevation":"305","JanuaryTmin":"-75"},"geometry":{"type":"Point","coordinates":[-121.333333,50.716667]}},{"type":"Feature","properties":{"StationName":"Wahleach(Jo","NativeID":"WAH","Elevation":"641","JanuaryTmin":"-31"},"geometry":{"type":"Point","coordinates":[-121.618611,49.231944]}},{"type":"Feature","properties":{"StationName":"WolfR.Uppe","NativeID":"WOL","Elevation":"1490","JanuaryTmin":"-49"},"geometry":{"type":"Point","coordinates":[-125.741667,49.680556]}},{"type":"Feature","properties":{"StationName":"Wonowon","NativeID":"WON","Elevation":"910","JanuaryTmin":"-169"},"geometry":{"type":"Point","coordinates":[-121.804028,56.729222]}},{"type":"Feature","properties":{"StationName":"Williston@","NativeID":"WSC","Elevation":"676","JanuaryTmin":"-120"},"geometry":{"type":"Point","coordinates":[-122.715833,56.106111]}},{"type":"Feature","properties":{"StationName":"GUSTAVUS","NativeID":"PAGS","Elevation":"9","JanuaryTmin":"-48"},"geometry":{"type":"Point","coordinates":[-135.73,58.42]}},{"type":"Feature","properties":{"StationName":"SKAGWAY","NativeID":"PAGY","Elevation":"5","JanuaryTmin":"-57"},"geometry":{"type":"Point","coordinates":[-135.3,59.47]}},{"type":"Feature","properties":{"StationName":"JUNEAUINTL","NativeID":"PAJN","Elevation":"5","JanuaryTmin":"-46"},"geometry":{"type":"Point","coordinates":[-134.5625,58.3561]}},{"type":"Feature","properties":{"StationName":"KETCHIKANIN","NativeID":"PAKT","Elevation":"26","JanuaryTmin":"-3"},"geometry":{"type":"Point","coordinates":[-131.7225,55.3531]}},{"type":"Feature","properties":{"StationName":"KLAWOCK","NativeID":"PAKW","Elevation":"15","JanuaryTmin":"-2"},"geometry":{"type":"Point","coordinates":[-133.08,55.58]}},{"type":"Feature","properties":{"StationName":"ANNETTEISLA","NativeID":"PANT","Elevation":"34","JanuaryTmin":"8"},"geometry":{"type":"Point","coordinates":[-131.57,55.03]}},{"type":"Feature","properties":{"StationName":"PETERSBURG","NativeID":"PAPG","Elevation":"34","JanuaryTmin":"-34"},"geometry":{"type":"Point","coordinates":[-132.9453,56.8017]}},{"type":"Feature","properties":{"StationName":"SITKA/JAPONS","NativeID":"PASI","Elevation":"6","JanuaryTmin":"2"},"geometry":{"type":"Point","coordinates":[-135.3647,57.0481]}},{"type":"Feature","properties":{"StationName":"WRANGELL","NativeID":"PAWG","Elevation":"13","JanuaryTmin":"-18"},"geometry":{"type":"Point","coordinates":[-132.37,56.48]}},{"type":"Feature","properties":{"StationName":"YAKUTAT","NativeID":"PAYA","Elevation":"9","JanuaryTmin":"-52"},"geometry":{"type":"Point","coordinates":[-139.67,59.52]}},{"type":"Feature","properties":{"StationName":"Belgo","NativeID":"SBC8","Elevation":"475","JanuaryTmin":"-43"},"geometry":{"type":"Point","coordinates":[-119.373225,49.879864]}},{"type":"Feature","properties":{"StationName":"Ellison","NativeID":"SBC9","Elevation":"473","JanuaryTmin":"-54"},"geometry":{"type":"Point","coordinates":[-119.354164,49.943325]}},{"type":"Feature","properties":{"StationName":"SumasPrairi","NativeID":"bc65","Elevation":"100","JanuaryTmin":"15"},"geometry":{"type":"Point","coordinates":[-122.145833,49.0725]}},{"type":"Feature","properties":{"StationName":"SilverCreek","NativeID":"sa89","Elevation":"374","JanuaryTmin":"-55"},"geometry":{"type":"Point","coordinates":[-119.385515,50.632354]}},{"type":"Feature","properties":{"StationName":"Westwold","NativeID":"we89","Elevation":"653","JanuaryTmin":"-16"},"geometry":{"type":"Point","coordinates":[-119.764472,50.467435]}},{"type":"Feature","properties":{"StationName":"Brandywine","NativeID":"11091","Elevation":"496","JanuaryTmin":"-35"},"geometry":{"type":"Point","coordinates":[-123.11806,50.05417]}},{"type":"Feature","properties":{"StationName":"Mt.Strachan","NativeID":"11121","Elevation":"1220","JanuaryTmin":"-43"},"geometry":{"type":"Point","coordinates":[-123.19144,49.40431]}},{"type":"Feature","properties":{"StationName":"Mt.Strachan","NativeID":"11122","Elevation":"1420","JanuaryTmin":"-46"},"geometry":{"type":"Point","coordinates":[-123.19636,49.41003]}},{"type":"Feature","properties":{"StationName":"Mt.Harvey","NativeID":"11123","Elevation":"1460","JanuaryTmin":"-47"},"geometry":{"type":"Point","coordinates":[-123.18961,49.47889]}},{"type":"Feature","properties":{"StationName":"DeeksPeak","NativeID":"11125","Elevation":"1280","JanuaryTmin":"-35"},"geometry":{"type":"Point","coordinates":[-123.21833,49.53414]}},{"type":"Feature","properties":{"StationName":"BradnerRoad","NativeID":"15092","Elevation":"110","JanuaryTmin":"4"},"geometry":{"type":"Point","coordinates":[-122.42528,49.07556]}},{"type":"Feature","properties":{"StationName":"NicolumCree","NativeID":"15093","Elevation":"244","JanuaryTmin":"-22"},"geometry":{"type":"Point","coordinates":[-121.35611,49.36306]}},{"type":"Feature","properties":{"StationName":"HellsGateR","NativeID":"15123","Elevation":"1005","JanuaryTmin":"-54"},"geometry":{"type":"Point","coordinates":[-121.42852,49.79229]}},{"type":"Feature","properties":{"StationName":"Jackass","NativeID":"15124","Elevation":"350","JanuaryTmin":"-37"},"geometry":{"type":"Point","coordinates":[-121.5475,50.07611]}},{"type":"Feature","properties":{"StationName":"FoundationM","NativeID":"15321","Elevation":"1650","JanuaryTmin":"-65"},"geometry":{"type":"Point","coordinates":[-121.08417,49.23]}},{"type":"Feature","properties":{"StationName":"AllisonPass","NativeID":"15322","Elevation":"1340","JanuaryTmin":"-98"},"geometry":{"type":"Point","coordinates":[-120.87,49.11528]}},{"type":"Feature","properties":{"StationName":"AllisonPass","NativeID":"15392","Elevation":"1340","JanuaryTmin":"-96"},"geometry":{"type":"Point","coordinates":[-120.86744,49.11564]}},{"type":"Feature","properties":{"StationName":"OsoyoosEast","NativeID":"18482","Elevation":"371","JanuaryTmin":"-39"},"geometry":{"type":"Point","coordinates":[-119.420806,49.024083]}},{"type":"Feature","properties":{"StationName":"Yellowhead","NativeID":"1A01P","Elevation":"1860","JanuaryTmin":"-125"},"geometry":{"type":"Point","coordinates":[-118.55,52.9]}},{"type":"Feature","properties":{"StationName":"McBride(Upp","NativeID":"1A02P","Elevation":"1620","JanuaryTmin":"-107"},"geometry":{"type":"Point","coordinates":[-120.333,53.3]}},{"type":"Feature","properties":{"StationName":"Barkerville","NativeID":"1A03P","Elevation":"1520","JanuaryTmin":"-94"},"geometry":{"type":"Point","coordinates":[-121.483,53.05]}},{"type":"Feature","properties":{"StationName":"HedrickLake","NativeID":"1A14P","Elevation":"1100","JanuaryTmin":"-119"},"geometry":{"type":"Point","coordinates":[-121,54.1]}},{"type":"Feature","properties":{"StationName":"RevolutionC","NativeID":"1A17P","Elevation":"1690","JanuaryTmin":"-103"},"geometry":{"type":"Point","coordinates":[-120.367,53.783]}},{"type":"Feature","properties":{"StationName":"MountWells","NativeID":"1B01P","Elevation":"1490","JanuaryTmin":"-106"},"geometry":{"type":"Point","coordinates":[-126.417,53.733]}},{"type":"Feature","properties":{"StationName":"Mt.Pondosy","NativeID":"1B08P","Elevation":"1400","JanuaryTmin":"-100"},"geometry":{"type":"Point","coordinates":[-126.867,53.167]}},{"type":"Feature","properties":{"StationName":"GreenMounta","NativeID":"1C12P","Elevation":"1780","JanuaryTmin":"-66"},"geometry":{"type":"Point","coordinates":[-122.917,50.8]}},{"type":"Feature","properties":{"StationName":"MissionRidg","NativeID":"1C18P","Elevation":"1850","JanuaryTmin":"-86"},"geometry":{"type":"Point","coordinates":[-122.2,50.767]}},{"type":"Feature","properties":{"StationName":"BossMountai","NativeID":"1C20P","Elevation":"1460","JanuaryTmin":"-114"},"geometry":{"type":"Point","coordinates":[-120.867,52.117]}},{"type":"Feature","properties":{"StationName":"YanksPeakE","NativeID":"1C41P","Elevation":"1670","JanuaryTmin":"-103"},"geometry":{"type":"Point","coordinates":[-120.35,52.833]}},{"type":"Feature","properties":{"StationName":"TenquilleLa","NativeID":"1D06P","Elevation":"1680","JanuaryTmin":"-86"},"geometry":{"type":"Point","coordinates":[-122.933,50.533]}},{"type":"Feature","properties":{"StationName":"BostonBarC","NativeID":"1D11P","Elevation":"1340","JanuaryTmin":"-47"},"geometry":{"type":"Point","coordinates":[-121.21667,49.583]}},{"type":"Feature","properties":{"StationName":"GreatBear","NativeID":"1D15P","Elevation":"1660","JanuaryTmin":"-72"},"geometry":{"type":"Point","coordinates":[-121.183,49.6]}},{"type":"Feature","properties":{"StationName":"ChilliwackR","NativeID":"1D17P","Elevation":"1600","JanuaryTmin":"-56"},"geometry":{"type":"Point","coordinates":[-121.717,49.033]}},{"type":"Feature","properties":{"StationName":"SpuzzumCree","NativeID":"1D19P","Elevation":"1180","JanuaryTmin":"-56"},"geometry":{"type":"Point","coordinates":[-121.65,49.667]}},{"type":"Feature","properties":{"StationName":"MountCook","NativeID":"1E02P","Elevation":"1550","JanuaryTmin":"-100"},"geometry":{"type":"Point","coordinates":[-121.65,49.667]}},{"type":"Feature","properties":{"StationName":"AzureRiver","NativeID":"1E08P","Elevation":"1310","JanuaryTmin":"-119"},"geometry":{"type":"Point","coordinates":[-119.717,52.617]}},{"type":"Feature","properties":{"StationName":"KostalLake","NativeID":"1E10P","Elevation":"1770","JanuaryTmin":"-101"},"geometry":{"type":"Point","coordinates":[-120.033,52.2]}},{"type":"Feature","properties":{"StationName":"CookCreek","NativeID":"1E14P","Elevation":"1280","JanuaryTmin":"-80"},"geometry":{"type":"Point","coordinates":[-119.3,52.167]}},{"type":"Feature","properties":{"StationName":"ParkMountai","NativeID":"1F03P","Elevation":"1890","JanuaryTmin":"-97"},"geometry":{"type":"Point","coordinates":[-118.617,50.45]}},{"type":"Feature","properties":{"StationName":"Walloper","NativeID":"21091","Elevation":"1300","JanuaryTmin":"-108"},"geometry":{"type":"Point","coordinates":[-120.47833,50.52861]}},{"type":"Feature","properties":{"StationName":"Barriere","NativeID":"21123","Elevation":"390","JanuaryTmin":"-72"},"geometry":{"type":"Point","coordinates":[-120.13582,51.11271]}},{"type":"Feature","properties":{"StationName":"Malakwa","NativeID":"22096","Elevation":"335","JanuaryTmin":"-73"},"geometry":{"type":"Point","coordinates":[-118.78861,50.93417]}},{"type":"Feature","properties":{"StationName":"Squilax","NativeID":"22123","Elevation":"366","JanuaryTmin":"-51"},"geometry":{"type":"Point","coordinates":[-119.57111,50.87278]}},{"type":"Feature","properties":{"StationName":"KalamalkaLo","NativeID":"23097","Elevation":"570","JanuaryTmin":"-47"},"geometry":{"type":"Point","coordinates":[-119.30607,50.2112]}},{"type":"Feature","properties":{"StationName":"ApexRoadsid","NativeID":"24126","Elevation":"1750","JanuaryTmin":"-84"},"geometry":{"type":"Point","coordinates":[-119.9008,49.39693]}},{"type":"Feature","properties":{"StationName":"RedBluffs","NativeID":"24225","Elevation":"830","JanuaryTmin":"-84"},"geometry":{"type":"Point","coordinates":[-120.62431,49.47619]}},{"type":"Feature","properties":{"StationName":"OliverNorth","NativeID":"24547","Elevation":"342","JanuaryTmin":"-47"},"geometry":{"type":"Point","coordinates":[-119.5874,49.1574]}},{"type":"Feature","properties":{"StationName":"HelmerLake","NativeID":"25092","Elevation":"1385","JanuaryTmin":"-115"},"geometry":{"type":"Point","coordinates":[-120.63661,50.32083]}},{"type":"Feature","properties":{"StationName":"LarsonHill","NativeID":"25093","Elevation":"1060","JanuaryTmin":"-86"},"geometry":{"type":"Point","coordinates":[-120.935,49.83111]}},{"type":"Feature","properties":{"StationName":"CoquihallaS","NativeID":"25221","Elevation":"1230","JanuaryTmin":"-69"},"geometry":{"type":"Point","coordinates":[-121.09948,49.5941]}},{"type":"Feature","properties":{"StationName":"GreatBear","NativeID":"25225","Elevation":"1710","JanuaryTmin":"-73"},"geometry":{"type":"Point","coordinates":[-121.17805,49.59582]}},{"type":"Feature","properties":{"StationName":"NakMid","NativeID":"25226","Elevation":"1700","JanuaryTmin":"-73"},"geometry":{"type":"Point","coordinates":[-121.09083,49.60083]}},{"type":"Feature","properties":{"StationName":"LittleBear","NativeID":"25229","Elevation":"1660","JanuaryTmin":"-77"},"geometry":{"type":"Point","coordinates":[-121.17801,49.59924]}},{"type":"Feature","properties":{"StationName":"OsoyoosWest","NativeID":"25602","Elevation":"295","JanuaryTmin":"-40"},"geometry":{"type":"Point","coordinates":[-119.46275,49.011833]}},{"type":"Feature","properties":{"StationName":"CarpenterLa","NativeID":"26123","Elevation":"660","JanuaryTmin":"-93"},"geometry":{"type":"Point","coordinates":[-122.44533,50.84153]}},{"type":"Feature","properties":{"StationName":"BlowdownPea","NativeID":"26221","Elevation":"2320","JanuaryTmin":"-105"},"geometry":{"type":"Point","coordinates":[-122.25556,50.40694]}},{"type":"Feature","properties":{"StationName":"BlowdownMid","NativeID":"26222","Elevation":"1890","JanuaryTmin":"-90"},"geometry":{"type":"Point","coordinates":[-122.26472,50.40222]}},{"type":"Feature","properties":{"StationName":"CayooshSumm","NativeID":"26224","Elevation":"1350","JanuaryTmin":"-92"},"geometry":{"type":"Point","coordinates":[-122.47403,50.37978]}},{"type":"Feature","properties":{"StationName":"BegbieSummi","NativeID":"28093","Elevation":"1127","JanuaryTmin":"-97"},"geometry":{"type":"Point","coordinates":[-121.37083,51.47611]}},{"type":"Feature","properties":{"StationName":"PennaskSumm","NativeID":"29092","Elevation":"1700","JanuaryTmin":"-102"},"geometry":{"type":"Point","coordinates":[-120.01336,49.90672]}},{"type":"Feature","properties":{"StationName":"MountRevels","NativeID":"2A06P","Elevation":"1830","JanuaryTmin":"-98"},"geometry":{"type":"Point","coordinates":[-118.15,51.033]}},{"type":"Feature","properties":{"StationName":"MolsonCreek","NativeID":"2A21P","Elevation":"1980","JanuaryTmin":"-119"},"geometry":{"type":"Point","coordinates":[-118.233,52.2333]}},{"type":"Feature","properties":{"StationName":"BarnesCreek","NativeID":"2B06P","Elevation":"1620","JanuaryTmin":"-100"},"geometry":{"type":"Point","coordinates":[-118.35,50.0667]}},{"type":"Feature","properties":{"StationName":"St.LeonCre","NativeID":"2B08P","Elevation":"1800","JanuaryTmin":"-92"},"geometry":{"type":"Point","coordinates":[-117.7,50.4333]}},{"type":"Feature","properties":{"StationName":"MorrisseyRi","NativeID":"2C09Q","Elevation":"1800","JanuaryTmin":"-101"},"geometry":{"type":"Point","coordinates":[-114.967,49.45]}},{"type":"Feature","properties":{"StationName":"MoyieMounta","NativeID":"2C10P","Elevation":"1930","JanuaryTmin":"-97"},"geometry":{"type":"Point","coordinates":[-115.767,49.25]}},{"type":"Feature","properties":{"StationName":"FloeLake","NativeID":"2C14P","Elevation":"2090","JanuaryTmin":"-127"},"geometry":{"type":"Point","coordinates":[-116.133,51.05]}},{"type":"Feature","properties":{"StationName":"EastCreek","NativeID":"2D08P","Elevation":"2030","JanuaryTmin":"-113"},"geometry":{"type":"Point","coordinates":[-116.933,50.6333]}},{"type":"Feature","properties":{"StationName":"RedfishCree","NativeID":"2D14P","Elevation":"2104","JanuaryTmin":"-107"},"geometry":{"type":"Point","coordinates":[-117.083333,49.683333]}},{"type":"Feature","properties":{"StationName":"GranoCreek","NativeID":"2E07P","Elevation":"1860","JanuaryTmin":"-86"},"geometry":{"type":"Point","coordinates":[-118.683,49.55]}},{"type":"Feature","properties":{"StationName":"MissionCree","NativeID":"2F05P","Elevation":"1780","JanuaryTmin":"-93"},"geometry":{"type":"Point","coordinates":[-118.95,49.95]}},{"type":"Feature","properties":{"StationName":"BrendaMine","NativeID":"2F18P","Elevation":"1460","JanuaryTmin":"-63"},"geometry":{"type":"Point","coordinates":[-120,49.8833]}},{"type":"Feature","properties":{"StationName":"BlackwallPe","NativeID":"2G03P","Elevation":"1940","JanuaryTmin":"-85"},"geometry":{"type":"Point","coordinates":[-120.767,49.1]}},{"type":"Feature","properties":{"StationName":"HallCreek","NativeID":"31091","Elevation":"860","JanuaryTmin":"-70"},"geometry":{"type":"Point","coordinates":[-117.2425,49.37333]}},{"type":"Feature","properties":{"StationName":"Southridge","NativeID":"31321","Elevation":"1990","JanuaryTmin":"-112"},"geometry":{"type":"Point","coordinates":[-117.16111,49.41778]}},{"type":"Feature","properties":{"StationName":"StrawberryP","NativeID":"32221","Elevation":"1600","JanuaryTmin":"-90"},"geometry":{"type":"Point","coordinates":[-117.89664,49.20444]}},{"type":"Feature","properties":{"StationName":"AnarchistSu","NativeID":"33093","Elevation":"1097","JanuaryTmin":"-81"},"geometry":{"type":"Point","coordinates":[-119.31361,49.00556]}},{"type":"Feature","properties":{"StationName":"McCulloch","NativeID":"33099","Elevation":"1220","JanuaryTmin":"-109"},"geometry":{"type":"Point","coordinates":[-119.12639,49.75778]}},{"type":"Feature","properties":{"StationName":"Blueberry","NativeID":"33121","Elevation":"1570","JanuaryTmin":"-81"},"geometry":{"type":"Point","coordinates":[-118.10936,49.15997]}},{"type":"Feature","properties":{"StationName":"PaulsonSumm","NativeID":"33122","Elevation":"1535","JanuaryTmin":"-95"},"geometry":{"type":"Point","coordinates":[-118.05205,49.24368]}},{"type":"Feature","properties":{"StationName":"FishLake","NativeID":"34126","Elevation":"1080","JanuaryTmin":"-90"},"geometry":{"type":"Point","coordinates":[-117.17914,50.04631]}},{"type":"Feature","properties":{"StationName":"LondonRidge","NativeID":"34128","Elevation":"2070","JanuaryTmin":"-102"},"geometry":{"type":"Point","coordinates":[-117.23481,50.04589]}},{"type":"Feature","properties":{"StationName":"LondonRidge","NativeID":"34129","Elevation":"2160","JanuaryTmin":"-106"},"geometry":{"type":"Point","coordinates":[-117.22867,50.04931]}},{"type":"Feature","properties":{"StationName":"Lardeau","NativeID":"34224","Elevation":"1097","JanuaryTmin":"-71"},"geometry":{"type":"Point","coordinates":[-116.9675,50.15417]}},{"type":"Feature","properties":{"StationName":"CoffeeCreek","NativeID":"34621","Elevation":"610","JanuaryTmin":"-34"},"geometry":{"type":"Point","coordinates":[-116.90722,49.71444]}},{"type":"Feature","properties":{"StationName":"SummitLake","NativeID":"34791","Elevation":"780","JanuaryTmin":"-60"},"geometry":{"type":"Point","coordinates":[-117.5925,50.1475]}},{"type":"Feature","properties":{"StationName":"CanalFlats","NativeID":"35091","Elevation":"870","JanuaryTmin":"-121"},"geometry":{"type":"Point","coordinates":[-115.76111,49.99444]}},{"type":"Feature","properties":{"StationName":"Moyie","NativeID":"35092","Elevation":"975","JanuaryTmin":"-82"},"geometry":{"type":"Point","coordinates":[-115.82889,49.32611]}},{"type":"Feature","properties":{"StationName":"Morrissey","NativeID":"36124","Elevation":"960","JanuaryTmin":"-100"},"geometry":{"type":"Point","coordinates":[-115.02306,49.39]}},{"type":"Feature","properties":{"StationName":"VermillionP","NativeID":"37091","Elevation":"870","JanuaryTmin":"-122"},"geometry":{"type":"Point","coordinates":[-116.17647,50.73828]}},{"type":"Feature","properties":{"StationName":"Nordic2","NativeID":"37092","Elevation":"1041","JanuaryTmin":"-110"},"geometry":{"type":"Point","coordinates":[-117.42179,51.507]}},{"type":"Feature","properties":{"StationName":"KickingHors","NativeID":"37121","Elevation":"1844","JanuaryTmin":"-112"},"geometry":{"type":"Point","coordinates":[-116.87847,51.31514]}},{"type":"Feature","properties":{"StationName":"KickingHors","NativeID":"37122","Elevation":"1440","JanuaryTmin":"-107"},"geometry":{"type":"Point","coordinates":[-116.88467,51.31056]}},{"type":"Feature","properties":{"StationName":"TopofTenM","NativeID":"37125","Elevation":"1100","JanuaryTmin":"-113"},"geometry":{"type":"Point","coordinates":[-116.76,51.27278]}},{"type":"Feature","properties":{"StationName":"TobyCreek","NativeID":"37221","Elevation":"1130","JanuaryTmin":"-151"},"geometry":{"type":"Point","coordinates":[-116.252,50.45472]}},{"type":"Feature","properties":{"StationName":"3ValleyRem","NativeID":"38121","Elevation":"1165","JanuaryTmin":"-80"},"geometry":{"type":"Point","coordinates":[-118.44503,50.92666]}},{"type":"Feature","properties":{"StationName":"Clanwilliam","NativeID":"38124","Elevation":"610","JanuaryTmin":"-61"},"geometry":{"type":"Point","coordinates":[-118.37777,50.96248]}},{"type":"Feature","properties":{"StationName":"CorbinPass","NativeID":"38222","Elevation":"1615","JanuaryTmin":"-95"},"geometry":{"type":"Point","coordinates":[-117.77111,51.19333]}},{"type":"Feature","properties":{"StationName":"CorbinPass","NativeID":"38226","Elevation":"2135","JanuaryTmin":"-113"},"geometry":{"type":"Point","coordinates":[-117.77778,51.20083]}},{"type":"Feature","properties":{"StationName":"AlbertCanyo","NativeID":"38227","Elevation":"870","JanuaryTmin":"-91"},"geometry":{"type":"Point","coordinates":[-117.76453,51.17986]}},{"type":"Feature","properties":{"StationName":"CaribouRidg","NativeID":"38323","Elevation":"1740","JanuaryTmin":"-108"},"geometry":{"type":"Point","coordinates":[-118.46167,51.51833]}},{"type":"Feature","properties":{"StationName":"50Mile","NativeID":"38324","Elevation":"650","JanuaryTmin":"-85"},"geometry":{"type":"Point","coordinates":[-118.60111,51.59917]}},{"type":"Feature","properties":{"StationName":"FredLaingR","NativeID":"38325","Elevation":"1080","JanuaryTmin":"-100"},"geometry":{"type":"Point","coordinates":[-118.57083,52.04028]}},{"type":"Feature","properties":{"StationName":"Mica","NativeID":"38326","Elevation":"565","JanuaryTmin":"-73"},"geometry":{"type":"Point","coordinates":[-118.56222,51.95778]}},{"type":"Feature","properties":{"StationName":"GalenaPass","NativeID":"38424","Elevation":"1570","JanuaryTmin":"-85"},"geometry":{"type":"Point","coordinates":[-117.755,50.70806]}},{"type":"Feature","properties":{"StationName":"KootenayPas","NativeID":"39121","Elevation":"1780","JanuaryTmin":"-103"},"geometry":{"type":"Point","coordinates":[-117.04,49.05806]}},{"type":"Feature","properties":{"StationName":"Stagleap","NativeID":"39123","Elevation":"2140","JanuaryTmin":"-105"},"geometry":{"type":"Point","coordinates":[-117.08389,49.07161]}},{"type":"Feature","properties":{"StationName":"TiedemannGl","NativeID":"3A17P","Elevation":"1400","JanuaryTmin":"-90"},"geometry":{"type":"Point","coordinates":[-124.967,51.35]}},{"type":"Feature","properties":{"StationName":"NostetukoRi","NativeID":"3A22P","Elevation":"1500","JanuaryTmin":"-87"},"geometry":{"type":"Point","coordinates":[-124.45,51.25]}},{"type":"Feature","properties":{"StationName":"UpperMosley","NativeID":"3A24P","Elevation":"1650","JanuaryTmin":"-112"},"geometry":{"type":"Point","coordinates":[-124.617,51.7833]}},{"type":"Feature","properties":{"StationName":"UpperSquami","NativeID":"3A25P","Elevation":"1340","JanuaryTmin":"-63"},"geometry":{"type":"Point","coordinates":[-123.433,50.15]}},{"type":"Feature","properties":{"StationName":"WolfRiver(","NativeID":"3B17P","Elevation":"1490","JanuaryTmin":"-46"},"geometry":{"type":"Point","coordinates":[-125.667,49.7]}},{"type":"Feature","properties":{"StationName":"JumpCreek","NativeID":"3B23P","Elevation":"1160","JanuaryTmin":"-32"},"geometry":{"type":"Point","coordinates":[-124.283,48.9667]}},{"type":"Feature","properties":{"StationName":"BurntBridge","NativeID":"3C08P","Elevation":"1330","JanuaryTmin":"-93"},"geometry":{"type":"Point","coordinates":[-126.25,52.4833]}},{"type":"Feature","properties":{"StationName":"WestTwinCr","NativeID":"41091","Elevation":"850","JanuaryTmin":"-105"},"geometry":{"type":"Point","coordinates":[-120.515,53.44014]}},{"type":"Feature","properties":{"StationName":"LinkCreek","NativeID":"41092","Elevation":"730","JanuaryTmin":"-141"},"geometry":{"type":"Point","coordinates":[-122.65694,55.50111]}},{"type":"Feature","properties":{"StationName":"WhiskersPoi","NativeID":"41093","Elevation":"710","JanuaryTmin":"-144"},"geometry":{"type":"Point","coordinates":[-122.9275,54.90389]}},{"type":"Feature","properties":{"StationName":"Tamarack","NativeID":"41094","Elevation":"715","JanuaryTmin":"-137"},"geometry":{"type":"Point","coordinates":[-123.13222,53.83139]}},{"type":"Feature","properties":{"StationName":"DragonLake","NativeID":"42091","Elevation":"659","JanuaryTmin":"-102"},"geometry":{"type":"Point","coordinates":[-122.43881,52.93078]}},{"type":"Feature","properties":{"StationName":"SlidingMoun","NativeID":"42121","Elevation":"1675","JanuaryTmin":"-100"},"geometry":{"type":"Point","coordinates":[-121.47889,53.15667]}},{"type":"Feature","properties":{"StationName":"BradenRoad","NativeID":"43091","Elevation":"760","JanuaryTmin":"-182"},"geometry":{"type":"Point","coordinates":[-120.76256,55.7815]}},{"type":"Feature","properties":{"StationName":"73Mile","NativeID":"44091","Elevation":"850","JanuaryTmin":"-173"},"geometry":{"type":"Point","coordinates":[-121.25264,56.54194]}},{"type":"Feature","properties":{"StationName":"ChappelCree","NativeID":"46094","Elevation":"786","JanuaryTmin":"-102"},"geometry":{"type":"Point","coordinates":[-119.18008,52.38556]}},{"type":"Feature","properties":{"StationName":"RobsonRoads","NativeID":"46127","Elevation":"944","JanuaryTmin":"-109"},"geometry":{"type":"Point","coordinates":[-119.2003,53.03303]}},{"type":"Feature","properties":{"StationName":"Lee'sHill","NativeID":"47091","Elevation":"1090","JanuaryTmin":"-130"},"geometry":{"type":"Point","coordinates":[-122.98586,51.93747]}},{"type":"Feature","properties":{"StationName":"Enterprise","NativeID":"47092","Elevation":"730","JanuaryTmin":"-109"},"geometry":{"type":"Point","coordinates":[-121.79278,51.96139]}},{"type":"Feature","properties":{"StationName":"HeckmanPass","NativeID":"47122","Elevation":"975","JanuaryTmin":"-76"},"geometry":{"type":"Point","coordinates":[-125.87449,52.4347]}},{"type":"Feature","properties":{"StationName":"PinePass","NativeID":"4A02P","Elevation":"1400","JanuaryTmin":"-123"},"geometry":{"type":"Point","coordinates":[-122.633,55.35]}},{"type":"Feature","properties":{"StationName":"PulpitLake","NativeID":"4A09P","Elevation":"1310","JanuaryTmin":"-171"},"geometry":{"type":"Point","coordinates":[-126.783,57.5333]}},{"type":"Feature","properties":{"StationName":"KwadachaRiv","NativeID":"4A27P","Elevation":"1620","JanuaryTmin":"-126"},"geometry":{"type":"Point","coordinates":[-125.067,57.6167]}},{"type":"Feature","properties":{"StationName":"AikenLake","NativeID":"4A30P","Elevation":"1040","JanuaryTmin":"-165"},"geometry":{"type":"Point","coordinates":[-125.733,56.45]}},{"type":"Feature","properties":{"StationName":"LuLake","NativeID":"4B15P","Elevation":"1310","JanuaryTmin":"-112"},"geometry":{"type":"Point","coordinates":[-126.3,54.2]}},{"type":"Feature","properties":{"StationName":"ShedinCreek","NativeID":"4B16P","Elevation":"1480","JanuaryTmin":"-110"},"geometry":{"type":"Point","coordinates":[-127.7,55.85]}},{"type":"Feature","properties":{"StationName":"TsaiCreek","NativeID":"4B17P","Elevation":"1360","JanuaryTmin":"-104"},"geometry":{"type":"Point","coordinates":[-127.667,54.65]}},{"type":"Feature","properties":{"StationName":"Cedar-Kiteen","NativeID":"4B18P","Elevation":"885","JanuaryTmin":"-86"},"geometry":{"type":"Point","coordinates":[-128.717,55.15]}},{"type":"Feature","properties":{"StationName":"DeadwoodRiv","NativeID":"4C09P","Elevation":"1300","JanuaryTmin":"-154"},"geometry":{"type":"Point","coordinates":[-128.317,59.25]}},{"type":"Feature","properties":{"StationName":"BluffCreek","NativeID":"4C11P","Elevation":"1040","JanuaryTmin":"-193"},"geometry":{"type":"Point","coordinates":[-126.45,58.5333]}},{"type":"Feature","properties":{"StationName":"FrogRiver","NativeID":"4C14P","Elevation":"1480","JanuaryTmin":"-144"},"geometry":{"type":"Point","coordinates":[-127.5,57.9833]}},{"type":"Feature","properties":{"StationName":"ForrestKerr","NativeID":"4D08P","Elevation":"560","JanuaryTmin":"-138"},"geometry":{"type":"Point","coordinates":[-130.783,56.95]}},{"type":"Feature","properties":{"StationName":"TumekaCreek","NativeID":"4D10P","Elevation":"1220","JanuaryTmin":"-130"},"geometry":{"type":"Point","coordinates":[-129.717,57.2333]}},{"type":"Feature","properties":{"StationName":"KinaskanLak","NativeID":"4D11P","Elevation":"1020","JanuaryTmin":"-150"},"geometry":{"type":"Point","coordinates":[-130.25,57.5667]}},{"type":"Feature","properties":{"StationName":"UpperStikin","NativeID":"4D13P","Elevation":"1450","JanuaryTmin":"-145"},"geometry":{"type":"Point","coordinates":[-128.317,57.2333]}},{"type":"Feature","properties":{"StationName":"WadeLake","NativeID":"4D14P","Elevation":"1370","JanuaryTmin":"-169"},"geometry":{"type":"Point","coordinates":[-128.9,58.1833]}},{"type":"Feature","properties":{"StationName":"WindyPoint","NativeID":"51123","Elevation":"1035","JanuaryTmin":"-96"},"geometry":{"type":"Point","coordinates":[-129.51522,56.11017]}},{"type":"Feature","properties":{"StationName":"WindyPoint","NativeID":"51124","Elevation":"1490","JanuaryTmin":"-100"},"geometry":{"type":"Point","coordinates":[-129.52642,56.11714]}},{"type":"Feature","properties":{"StationName":"Disraeli","NativeID":"51125","Elevation":"2000","JanuaryTmin":"-135"},"geometry":{"type":"Point","coordinates":[-129.75167,56.09972]}},{"type":"Feature","properties":{"StationName":"Endgoal","NativeID":"51126","Elevation":"370","JanuaryTmin":"-96"},"geometry":{"type":"Point","coordinates":[-129.51206,56.09956]}},{"type":"Feature","properties":{"StationName":"SummitSluff","NativeID":"51127","Elevation":"540","JanuaryTmin":"-77"},"geometry":{"type":"Point","coordinates":[-129.65389,56.10631]}},{"type":"Feature","properties":{"StationName":"KettleHole","NativeID":"51128","Elevation":"440","JanuaryTmin":"-87"},"geometry":{"type":"Point","coordinates":[-129.63297,56.10347]}},{"type":"Feature","properties":{"StationName":"Stewart","NativeID":"51129","Elevation":"15","JanuaryTmin":"-51"},"geometry":{"type":"Point","coordinates":[-129.98264,55.94808]}},{"type":"Feature","properties":{"StationName":"CranberryJu","NativeID":"51191","Elevation":"356","JanuaryTmin":"-95"},"geometry":{"type":"Point","coordinates":[-128.67278,55.63222]}},{"type":"Feature","properties":{"StationName":"LegateCreek","NativeID":"52091","Elevation":"130","JanuaryTmin":"-61"},"geometry":{"type":"Point","coordinates":[-128.26111,54.74639]}},{"type":"Feature","properties":{"StationName":"Rosswood","NativeID":"52092","Elevation":"280","JanuaryTmin":"-62"},"geometry":{"type":"Point","coordinates":[-128.89361,54.93722]}},{"type":"Feature","properties":{"StationName":"OnionLake","NativeID":"52093","Elevation":"220","JanuaryTmin":"-59"},"geometry":{"type":"Point","coordinates":[-128.53778,54.30222]}},{"type":"Feature","properties":{"StationName":"KasiksHigh","NativeID":"52322","Elevation":"1435","JanuaryTmin":"-81"},"geometry":{"type":"Point","coordinates":[-129.44333,54.30161]}},{"type":"Feature","properties":{"StationName":"KasiksLow","NativeID":"52325","Elevation":"732","JanuaryTmin":"-57"},"geometry":{"type":"Point","coordinates":[-129.41833,54.30361]}},{"type":"Feature","properties":{"StationName":"Salvus","NativeID":"52326","Elevation":"10","JanuaryTmin":"-39"},"geometry":{"type":"Point","coordinates":[-129.35361,54.31444]}},{"type":"Feature","properties":{"StationName":"RainbowSumm","NativeID":"52327","Elevation":"110","JanuaryTmin":"-20"},"geometry":{"type":"Point","coordinates":[-130.07806,54.22944]}},{"type":"Feature","properties":{"StationName":"Shames","NativeID":"52405","Elevation":"740","JanuaryTmin":"-69"},"geometry":{"type":"Point","coordinates":[-128.95586,54.48497]}},{"type":"Feature","properties":{"StationName":"Iknouk","NativeID":"52521","Elevation":"860","JanuaryTmin":"-52"},"geometry":{"type":"Point","coordinates":[-129.77636,55.01033]}},{"type":"Feature","properties":{"StationName":"SnowbankHig","NativeID":"53121","Elevation":"1675","JanuaryTmin":"-109"},"geometry":{"type":"Point","coordinates":[-129.98333,56.76389]}},{"type":"Feature","properties":{"StationName":"SnowbankMid","NativeID":"53122","Elevation":"1065","JanuaryTmin":"-106"},"geometry":{"type":"Point","coordinates":[-129.97253,56.77667]}},{"type":"Feature","properties":{"StationName":"Gamma","NativeID":"53123","Elevation":"1175","JanuaryTmin":"-113"},"geometry":{"type":"Point","coordinates":[-130.10694,56.94667]}},{"type":"Feature","properties":{"StationName":"JadeCity","NativeID":"53221","Elevation":"940","JanuaryTmin":"-224"},"geometry":{"type":"Point","coordinates":[-129.65722,59.24917]}},{"type":"Feature","properties":{"StationName":"Telegraph","NativeID":"53321","Elevation":"290","JanuaryTmin":"-172"},"geometry":{"type":"Point","coordinates":[-131.13111,57.91278]}},{"type":"Feature","properties":{"StationName":"HungryHill","NativeID":"54091","Elevation":"820","JanuaryTmin":"-136"},"geometry":{"type":"Point","coordinates":[-126.74361,54.48194]}},{"type":"Feature","properties":{"StationName":"Stearns","NativeID":"55091","Elevation":"719","JanuaryTmin":"-143"},"geometry":{"type":"Point","coordinates":[-125.53639,54.19167]}},{"type":"Feature","properties":{"StationName":"Cochrane","NativeID":"63093","Elevation":"115","JanuaryTmin":"5"},"geometry":{"type":"Point","coordinates":[-124.61611,49.37056]}},{"type":"Feature","properties":{"StationName":"TsitikaSumm","NativeID":"64091","Elevation":"436","JanuaryTmin":"-16"},"geometry":{"type":"Point","coordinates":[-126.35528,50.2825]}},{"type":"Feature","properties":{"StationName":"NorthCourte","NativeID":"64093","Elevation":"100","JanuaryTmin":"3"},"geometry":{"type":"Point","coordinates":[-125.19006,49.83003]}},{"type":"Feature","properties":{"StationName":"Glenmore","NativeID":"SBC10","Elevation":"439","JanuaryTmin":"-52"},"geometry":{"type":"Point","coordinates":[-119.421042,49.912417]}},{"type":"Feature","properties":{"StationName":"KelownaEast","NativeID":"SBC12","Elevation":"416","JanuaryTmin":"-45"},"geometry":{"type":"Point","coordinates":[-119.421542,49.872875]}},{"type":"Feature","properties":{"StationName":"KelownaSout","NativeID":"SBC13","Elevation":"419","JanuaryTmin":"-45"},"geometry":{"type":"Point","coordinates":[-119.446385,49.838374]}},{"type":"Feature","properties":{"StationName":"O.K.Landing","NativeID":"SBC14","Elevation":"437","JanuaryTmin":"-48"},"geometry":{"type":"Point","coordinates":[-119.342583,50.257171]}},{"type":"Feature","properties":{"StationName":"Oyama","NativeID":"SBC15","Elevation":"491","JanuaryTmin":"-39"},"geometry":{"type":"Point","coordinates":[-119.367128,50.090526]}},{"type":"Feature","properties":{"StationName":"VernonNorth","NativeID":"SBC19","Elevation":"509","JanuaryTmin":"-59"},"geometry":{"type":"Point","coordinates":[-119.233686,50.294251]}},{"type":"Feature","properties":{"StationName":"Westbank","NativeID":"SBC20","Elevation":"391","JanuaryTmin":"-31"},"geometry":{"type":"Point","coordinates":[-119.624523,49.821304]}},{"type":"Feature","properties":{"StationName":"WinfieldNor","NativeID":"SBC22","Elevation":"468","JanuaryTmin":"-39"},"geometry":{"type":"Point","coordinates":[-119.414536,50.063203]}},{"type":"Feature","properties":{"StationName":"WinfieldSou","NativeID":"SBC23","Elevation":"525","JanuaryTmin":"-41"},"geometry":{"type":"Point","coordinates":[-119.424527,50.041193]}},{"type":"Feature","properties":{"StationName":"Cawston","NativeID":"SBC24","Elevation":"414","JanuaryTmin":"-54"},"geometry":{"type":"Point","coordinates":[-119.74325,49.182528]}},{"type":"Feature","properties":{"StationName":"Keremeos","NativeID":"SBC25","Elevation":"414","JanuaryTmin":"-49"},"geometry":{"type":"Point","coordinates":[-119.847531,49.202333]}},{"type":"Feature","properties":{"StationName":"PentictonSo","NativeID":"SBC32","Elevation":"374","JanuaryTmin":"-31"},"geometry":{"type":"Point","coordinates":[-119.56442,49.498417]}},{"type":"Feature","properties":{"StationName":"Summerland","NativeID":"SBC34","Elevation":"492","JanuaryTmin":"-49"},"geometry":{"type":"Point","coordinates":[-119.684639,49.613667]}},{"type":"Feature","properties":{"StationName":"SummerlandS","NativeID":"SBC35","Elevation":"459","JanuaryTmin":"-41"},"geometry":{"type":"Point","coordinates":[-119.65425,49.585028]}},{"type":"Feature","properties":{"StationName":"CHARTER","NativeID":"101006","Elevation":"424","JanuaryTmin":"-19"},"geometry":{"type":"Point","coordinates":[-123.923611,48.809722]}},{"type":"Feature","properties":{"StationName":"SAHTLAM","NativeID":"101008","Elevation":"201","JanuaryTmin":"6"},"geometry":{"type":"Point","coordinates":[-123.893333,48.784722]}},{"type":"Feature","properties":{"StationName":"SHAWNLKCFS","NativeID":"101009","Elevation":"335","JanuaryTmin":"4"},"geometry":{"type":"Point","coordinates":[-123.720833,48.6375]}},{"type":"Feature","properties":{"StationName":"SHAWNIGANLK","NativeID":"101023","Elevation":"343","JanuaryTmin":"4"},"geometry":{"type":"Point","coordinates":[-123.679167,48.621389]}},{"type":"Feature","properties":{"StationName":"NITINATFP","NativeID":"101024","Elevation":"152","JanuaryTmin":"9"},"geometry":{"type":"Point","coordinates":[-124.601667,48.864167]}},{"type":"Feature","properties":{"StationName":"MAPLEBAY","NativeID":"101317","Elevation":"12","JanuaryTmin":"60"},"geometry":{"type":"Point","coordinates":[-123.591111,48.820556]}},{"type":"Feature","properties":{"StationName":"ZANATTAGRAP","NativeID":"101322","Elevation":"105","JanuaryTmin":"2"},"geometry":{"type":"Point","coordinates":[-123.749167,48.754444]}},{"type":"Feature","properties":{"StationName":"FEINCK","NativeID":"101402","Elevation":"387","JanuaryTmin":"15"},"geometry":{"type":"Point","coordinates":[-124.048611,48.451389]}},{"type":"Feature","properties":{"StationName":"SANJUAN","NativeID":"101405","Elevation":"122","JanuaryTmin":"8"},"geometry":{"type":"Point","coordinates":[-124.078889,48.585]}},{"type":"Feature","properties":{"StationName":"MEADECK","NativeID":"101413","Elevation":"491","JanuaryTmin":"-1"},"geometry":{"type":"Point","coordinates":[-124.168056,48.888611]}},{"type":"Feature","properties":{"StationName":"COTTONWOODC","NativeID":"101414","Elevation":"291","JanuaryTmin":"6"},"geometry":{"type":"Point","coordinates":[-124.243611,48.902778]}},{"type":"Feature","properties":{"StationName":"CASSIDY","NativeID":"102001","Elevation":"201","JanuaryTmin":"-8"},"geometry":{"type":"Point","coordinates":[-123.936389,49.026667]}},{"type":"Feature","properties":{"StationName":"CHRISTIERD","NativeID":"102003","Elevation":"316","JanuaryTmin":"-7"},"geometry":{"type":"Point","coordinates":[-123.884444,48.993333]}},{"type":"Feature","properties":{"StationName":"EXTENSION","NativeID":"102008","Elevation":"453","JanuaryTmin":"-15"},"geometry":{"type":"Point","coordinates":[-124.034722,49.109444]}},{"type":"Feature","properties":{"StationName":"MCNAUGHTON","NativeID":"102010","Elevation":"419","JanuaryTmin":"-12"},"geometry":{"type":"Point","coordinates":[-124.810556,49.424444]}},{"type":"Feature","properties":{"StationName":"MERRILLLAKE","NativeID":"102012","Elevation":"299","JanuaryTmin":"-18"},"geometry":{"type":"Point","coordinates":[-125.575833,50.060278]}},{"type":"Feature","properties":{"StationName":"AMORLAKE","NativeID":"102014","Elevation":"269","JanuaryTmin":"-8"},"geometry":{"type":"Point","coordinates":[-125.576667,50.176111]}},{"type":"Feature","properties":{"StationName":"SNAKEHEAD","NativeID":"102016","Elevation":"293","JanuaryTmin":"-15"},"geometry":{"type":"Point","coordinates":[-125.481389,49.951944]}},{"type":"Feature","properties":{"StationName":"JOHNHART","NativeID":"102017","Elevation":"195","JanuaryTmin":"-9"},"geometry":{"type":"Point","coordinates":[-125.400556,50.043056]}},{"type":"Feature","properties":{"StationName":"MENZIESBAY","NativeID":"102018","Elevation":"143","JanuaryTmin":"4"},"geometry":{"type":"Point","coordinates":[-125.399444,50.110278]}},{"type":"Feature","properties":{"StationName":"MORTELAKE","NativeID":"102020","Elevation":"183","JanuaryTmin":"15"},"geometry":{"type":"Point","coordinates":[-125.308056,50.1525]}},{"type":"Feature","properties":{"StationName":"ELKBAY","NativeID":"102022","Elevation":"266","JanuaryTmin":"9"},"geometry":{"type":"Point","coordinates":[-125.439167,50.257778]}},{"type":"Feature","properties":{"StationName":"FRENCHCREEK","NativeID":"102025","Elevation":"488","JanuaryTmin":"-2"},"geometry":{"type":"Point","coordinates":[-124.500556,49.257222]}},{"type":"Feature","properties":{"StationName":"BIGTREECK","NativeID":"102026","Elevation":"146","JanuaryTmin":"-17"},"geometry":{"type":"Point","coordinates":[-125.710278,50.221389]}},{"type":"Feature","properties":{"StationName":"TSABLERFP","NativeID":"102027","Elevation":"238","JanuaryTmin":"3"},"geometry":{"type":"Point","coordinates":[-124.918333,49.526944]}},{"type":"Feature","properties":{"StationName":"KOKISHCAMP","NativeID":"102033","Elevation":"174","JanuaryTmin":"22"},"geometry":{"type":"Point","coordinates":[-126.848056,50.526944]}},{"type":"Feature","properties":{"StationName":"BONANZA","NativeID":"102034","Elevation":"416","JanuaryTmin":"15"},"geometry":{"type":"Point","coordinates":[-126.716944,50.298333]}},{"type":"Feature","properties":{"StationName":"ANDERSONLK","NativeID":"102035","Elevation":"521","JanuaryTmin":"-13"},"geometry":{"type":"Point","coordinates":[-125.173056,49.736667]}},{"type":"Feature","properties":{"StationName":"WESTTHURLOW","NativeID":"102037","Elevation":"125","JanuaryTmin":"9"},"geometry":{"type":"Point","coordinates":[-125.694167,50.400556]}},{"type":"Feature","properties":{"StationName":"WEIGHILLFAR","NativeID":"102040","Elevation":"101","JanuaryTmin":"9"},"geometry":{"type":"Point","coordinates":[-124.257778,49.271944]}},{"type":"Feature","properties":{"StationName":"OYSTER","NativeID":"102046","Elevation":"195","JanuaryTmin":"-4"},"geometry":{"type":"Point","coordinates":[-125.301667,49.866944]}},{"type":"Feature","properties":{"StationName":"LOOKOUTLOW","NativeID":"102127","Elevation":"823","JanuaryTmin":"-33"},"geometry":{"type":"Point","coordinates":[-123.986389,48.947222]}},{"type":"Feature","properties":{"StationName":"LOOKOUTTOP","NativeID":"102128","Elevation":"1113","JanuaryTmin":"-25"},"geometry":{"type":"Point","coordinates":[-124.001944,48.945556]}},{"type":"Feature","properties":{"StationName":"MTCAIN12SS","NativeID":"102302","Elevation":"390","JanuaryTmin":"0"},"geometry":{"type":"Point","coordinates":[-126.394722,50.186667]}},{"type":"Feature","properties":{"StationName":"MTCAIN12NS","NativeID":"102303","Elevation":"415","JanuaryTmin":"-3"},"geometry":{"type":"Point","coordinates":[-126.396944,50.177222]}},{"type":"Feature","properties":{"StationName":"MTCAIN20S","NativeID":"102306","Elevation":"701","JanuaryTmin":"-2"},"geometry":{"type":"Point","coordinates":[-126.388889,50.192778]}},{"type":"Feature","properties":{"StationName":"MTCAIN30S","NativeID":"102308","Elevation":"893","JanuaryTmin":"-21"},"geometry":{"type":"Point","coordinates":[-126.368611,50.202222]}},{"type":"Feature","properties":{"StationName":"DASHCREEK","NativeID":"102408","Elevation":"251","JanuaryTmin":"-11"},"geometry":{"type":"Point","coordinates":[-124.265833,49.0925]}},{"type":"Feature","properties":{"StationName":"FORBIDDEN","NativeID":"102409","Elevation":"87","JanuaryTmin":"-9"},"geometry":{"type":"Point","coordinates":[-125.084444,49.714722]}},{"type":"Feature","properties":{"StationName":"CHIPMANCK","NativeID":"102424","Elevation":"506","JanuaryTmin":"-5"},"geometry":{"type":"Point","coordinates":[-123.907778,48.859167]}},{"type":"Feature","properties":{"StationName":"GREENMTN","NativeID":"102425","Elevation":"1174","JanuaryTmin":"-18"},"geometry":{"type":"Point","coordinates":[-124.343611,49.053333]}},{"type":"Feature","properties":{"StationName":"NAHMINTLK","NativeID":"103418","Elevation":"235","JanuaryTmin":"16"},"geometry":{"type":"Point","coordinates":[-125.038611,49.164167]}},{"type":"Feature","properties":{"StationName":"CONUMARIVER","NativeID":"103419","Elevation":"91","JanuaryTmin":"19"},"geometry":{"type":"Point","coordinates":[-126.358611,49.809444]}},{"type":"Feature","properties":{"StationName":"RUPERTMAIN","NativeID":"103421","Elevation":"34","JanuaryTmin":"3"},"geometry":{"type":"Point","coordinates":[-127.386389,50.591944]}},{"type":"Feature","properties":{"StationName":"ALICELKFP","NativeID":"103425","Elevation":"171","JanuaryTmin":"11"},"geometry":{"type":"Point","coordinates":[-127.361111,50.444444]}},{"type":"Feature","properties":{"StationName":"POWELLRIVER","NativeID":"104025","Elevation":"396","JanuaryTmin":"7"},"geometry":{"type":"Point","coordinates":[-124.660556,49.989167]}},{"type":"Feature","properties":{"StationName":"PENDERHFP","NativeID":"104312","Elevation":"159","JanuaryTmin":"12"},"geometry":{"type":"Point","coordinates":[-123.965556,49.660278]}},{"type":"Feature","properties":{"StationName":"LOISLAKE","NativeID":"104317","Elevation":"488","JanuaryTmin":"-7"},"geometry":{"type":"Point","coordinates":[-124.238611,49.819444]}},{"type":"Feature","properties":{"StationName":"DEENACREEK","NativeID":"105008","Elevation":"75","JanuaryTmin":"20"},"geometry":{"type":"Point","coordinates":[-132.241389,53.125]}},{"type":"Feature","properties":{"StationName":"EDENLAKEAS","NativeID":"105009","Elevation":"41","JanuaryTmin":"17"},"geometry":{"type":"Point","coordinates":[-132.666667,53.907778]}},{"type":"Feature","properties":{"StationName":"GOSPELPOINT","NativeID":"105012","Elevation":"34","JanuaryTmin":"30"},"geometry":{"type":"Point","coordinates":[-132.513889,53.4]}},{"type":"Feature","properties":{"StationName":"JUSKATLAE1","NativeID":"105015","Elevation":"128","JanuaryTmin":"13"},"geometry":{"type":"Point","coordinates":[-132.378611,53.574167]}},{"type":"Feature","properties":{"StationName":"MARIELAKEN","NativeID":"105019","Elevation":"226","JanuaryTmin":"21"},"geometry":{"type":"Point","coordinates":[-132.2875,53.552778]}},{"type":"Feature","properties":{"StationName":"MARIELKRID","NativeID":"105020","Elevation":"398","JanuaryTmin":"22"},"geometry":{"type":"Point","coordinates":[-132.295278,53.533333]}},{"type":"Feature","properties":{"StationName":"SACHSCREEK","NativeID":"105027","Elevation":"177","JanuaryTmin":"11"},"geometry":{"type":"Point","coordinates":[-131.934722,53.190278]}},{"type":"Feature","properties":{"StationName":"SURVEYCR","NativeID":"105029","Elevation":"133","JanuaryTmin":"0"},"geometry":{"type":"Point","coordinates":[-132.175833,53.33]}},{"type":"Feature","properties":{"StationName":"PENTHOUSE","NativeID":"105041","Elevation":"378","JanuaryTmin":"13"},"geometry":{"type":"Point","coordinates":[-132.4375,53.363333]}},{"type":"Feature","properties":{"StationName":"BOUGIEBAY","NativeID":"106033","Elevation":"69","JanuaryTmin":"8"},"geometry":{"type":"Point","coordinates":[-126.143611,50.511944]}},{"type":"Feature","properties":{"StationName":"SONORAIS","NativeID":"106038","Elevation":"152","JanuaryTmin":"20"},"geometry":{"type":"Point","coordinates":[-125.3925,50.313056]}},{"type":"Feature","properties":{"StationName":"CALLINLET","NativeID":"106039","Elevation":"6","JanuaryTmin":"16"},"geometry":{"type":"Point","coordinates":[-126.205556,50.586667]}},{"type":"Feature","properties":{"StationName":"MAXAN1","NativeID":"107001","Elevation":"732","JanuaryTmin":"-146"},"geometry":{"type":"Point","coordinates":[-126.125,54.316667]}},{"type":"Feature","properties":{"StationName":"MAXAN2","NativeID":"107002","Elevation":"838","JanuaryTmin":"-122"},"geometry":{"type":"Point","coordinates":[-126.125,54.333333]}},{"type":"Feature","properties":{"StationName":"ANDIMAULLO","NativeID":"107077","Elevation":"460","JanuaryTmin":"-82"},"geometry":{"type":"Point","coordinates":[-127.974167,55.104167]}},{"type":"Feature","properties":{"StationName":"KITWANGAASB","NativeID":"107089","Elevation":"335","JanuaryTmin":"-88"},"geometry":{"type":"Point","coordinates":[-128.216667,55.463889]}},{"type":"Feature","properties":{"StationName":"OWENLO","NativeID":"107165","Elevation":"1094","JanuaryTmin":"-91"},"geometry":{"type":"Point","coordinates":[-126.861111,54.181389]}},{"type":"Feature","properties":{"StationName":"NEWHAZLETON","NativeID":"107199","Elevation":"319","JanuaryTmin":"-99"},"geometry":{"type":"Point","coordinates":[-127.579167,55.245833]}},{"type":"Feature","properties":{"StationName":"SHARON","NativeID":"107253","Elevation":"1082","JanuaryTmin":"-111"},"geometry":{"type":"Point","coordinates":[-126.277778,54.6375]}},{"type":"Feature","properties":{"StationName":"MATTHEW","NativeID":"107254","Elevation":"884","JanuaryTmin":"-92"},"geometry":{"type":"Point","coordinates":[-126.665278,54.422222]}},{"type":"Feature","properties":{"StationName":"HARRY","NativeID":"107255","Elevation":"1219","JanuaryTmin":"-99"},"geometry":{"type":"Point","coordinates":[-126.656944,54.451389]}},{"type":"Feature","properties":{"StationName":"SWANSORANCH","NativeID":"107267","Elevation":"521","JanuaryTmin":"-93"},"geometry":{"type":"Point","coordinates":[-127.286111,54.988056]}},{"type":"Feature","properties":{"StationName":"THORNHILLMT","NativeID":"107275","Elevation":"521","JanuaryTmin":"-43"},"geometry":{"type":"Point","coordinates":[-128.493056,54.495833]}},{"type":"Feature","properties":{"StationName":"HAYES1300","NativeID":"107289","Elevation":"396","JanuaryTmin":"-19"},"geometry":{"type":"Point","coordinates":[-130.341667,54.275]}},{"type":"Feature","properties":{"StationName":"NEGRELGA","NativeID":"107316","Elevation":"815","JanuaryTmin":"-102"},"geometry":{"type":"Point","coordinates":[-128.915278,55.865278]}},{"type":"Feature","properties":{"StationName":"SALADAMIS","NativeID":"107324","Elevation":"381","JanuaryTmin":"-139"},"geometry":{"type":"Point","coordinates":[-129.308333,56.316667]}},{"type":"Feature","properties":{"StationName":"CRATERLAKE","NativeID":"107359","Elevation":"1506","JanuaryTmin":"-102"},"geometry":{"type":"Point","coordinates":[-127.263889,54.769444]}},{"type":"Feature","properties":{"StationName":"HOUSTONHELI","NativeID":"107393","Elevation":"595","JanuaryTmin":"-126"},"geometry":{"type":"Point","coordinates":[-126.718056,54.393056]}},{"type":"Feature","properties":{"StationName":"GINGERBREAD","NativeID":"108401","Elevation":"253","JanuaryTmin":"-88"},"geometry":{"type":"Point","coordinates":[-122.973056,50.494167]}},{"type":"Feature","properties":{"StationName":"BALDYHUGHES","NativeID":"109019","Elevation":"1098","JanuaryTmin":"-106"},"geometry":{"type":"Point","coordinates":[-122.955556,53.630833]}},{"type":"Feature","properties":{"StationName":"PELICANLAKE","NativeID":"109022","Elevation":"732","JanuaryTmin":"-157"},"geometry":{"type":"Point","coordinates":[-123.630556,53.341667]}},{"type":"Feature","properties":{"StationName":"NAVER115","NativeID":"109066","Elevation":"861","JanuaryTmin":"-144"},"geometry":{"type":"Point","coordinates":[-122.259722,53.329167]}},{"type":"Feature","properties":{"StationName":"NAVER180","NativeID":"109067","Elevation":"1104","JanuaryTmin":"-104"},"geometry":{"type":"Point","coordinates":[-122.152778,53.294444]}},{"type":"Feature","properties":{"StationName":"WILLOW","NativeID":"109069","Elevation":"924","JanuaryTmin":"-133"},"geometry":{"type":"Point","coordinates":[-122.006944,53.427778]}},{"type":"Feature","properties":{"StationName":"STRATHNAVER","NativeID":"109077","Elevation":"762","JanuaryTmin":"-92"},"geometry":{"type":"Point","coordinates":[-122.5125,53.286111]}},{"type":"Feature","properties":{"StationName":"HUNT","NativeID":"109124","Elevation":"739","JanuaryTmin":"-157"},"geometry":{"type":"Point","coordinates":[-124.202778,54.604167]}},{"type":"Feature","properties":{"StationName":"PUNCHAW","NativeID":"109126","Elevation":"760","JanuaryTmin":"-129"},"geometry":{"type":"Point","coordinates":[-123.133333,53.433333]}},{"type":"Feature","properties":{"StationName":"EXPECTED","NativeID":"109144","Elevation":"863","JanuaryTmin":"-136"},"geometry":{"type":"Point","coordinates":[-124.202778,54.198611]}},{"type":"Feature","properties":{"StationName":"BOERLO","NativeID":"109172","Elevation":"1242","JanuaryTmin":"-103"},"geometry":{"type":"Point","coordinates":[-125.663889,54.2675]}},{"type":"Feature","properties":{"StationName":"VERDUNLO","NativeID":"109192","Elevation":"1159","JanuaryTmin":"-85"},"geometry":{"type":"Point","coordinates":[-126.008889,53.855556]}},{"type":"Feature","properties":{"StationName":"REDROCKNUR","NativeID":"109220","Elevation":"620","JanuaryTmin":"-110"},"geometry":{"type":"Point","coordinates":[-122.708333,53.900278]}},{"type":"Feature","properties":{"StationName":"WYCOTTFLATS","NativeID":"109232","Elevation":"890","JanuaryTmin":"-99"},"geometry":{"type":"Point","coordinates":[-122.506111,51.46]}},{"type":"Feature","properties":{"StationName":"NESSLAKE","NativeID":"109233","Elevation":"793","JanuaryTmin":"-125"},"geometry":{"type":"Point","coordinates":[-123.083333,54.008333]}},{"type":"Feature","properties":{"StationName":"KAGEN","NativeID":"109861","Elevation":"899","JanuaryTmin":"-101"},"geometry":{"type":"Point","coordinates":[-125.695833,54.245833]}},{"type":"Feature","properties":{"StationName":"REDPASSPRK","NativeID":"109932","Elevation":"1067","JanuaryTmin":"-138"},"geometry":{"type":"Point","coordinates":[-118.983611,52.983333]}},{"type":"Feature","properties":{"StationName":"MCCULLAGH","NativeID":"109953","Elevation":"776","JanuaryTmin":"-122"},"geometry":{"type":"Point","coordinates":[-121.083333,54.05]}},{"type":"Feature","properties":{"StationName":"HEDRICKLK","NativeID":"109956","Elevation":"1134","JanuaryTmin":"-133"},"geometry":{"type":"Point","coordinates":[-121,54.1]}},{"type":"Feature","properties":{"StationName":"KNUDSENLK","NativeID":"109957","Elevation":"1694","JanuaryTmin":"-110"},"geometry":{"type":"Point","coordinates":[-120.783333,54.3]}},{"type":"Feature","properties":{"StationName":"DOMELO","NativeID":"109972","Elevation":"1451","JanuaryTmin":"-83"},"geometry":{"type":"Point","coordinates":[-121.083333,53.666667]}},{"type":"Feature","properties":{"StationName":"MARGUERITE","NativeID":"109978","Elevation":"435","JanuaryTmin":"-108"},"geometry":{"type":"Point","coordinates":[-122.422222,52.506944]}},{"type":"Feature","properties":{"StationName":"GOLDENEARS","NativeID":"110001","Elevation":"209","JanuaryTmin":"9"},"geometry":{"type":"Point","coordinates":[-122.513889,49.277222]}},{"type":"Feature","properties":{"StationName":"DELTA","NativeID":"110007","Elevation":"5","JanuaryTmin":"7"},"geometry":{"type":"Point","coordinates":[-123.035833,49.112778]}},{"type":"Feature","properties":{"StationName":"BOUNDARYBAY","NativeID":"110008","Elevation":"1","JanuaryTmin":"6"},"geometry":{"type":"Point","coordinates":[-123.018889,49.086667]}},{"type":"Feature","properties":{"StationName":"CHABERTON","NativeID":"110504","Elevation":"91","JanuaryTmin":"8"},"geometry":{"type":"Point","coordinates":[-122.617778,49.0225]}},{"type":"Feature","properties":{"StationName":"TAMIHI","NativeID":"110623","Elevation":"482","JanuaryTmin":"-1"},"geometry":{"type":"Point","coordinates":[-121.789167,49.065556]}},{"type":"Feature","properties":{"StationName":"SCHAWATUM","NativeID":"110625","Elevation":"921","JanuaryTmin":"-35"},"geometry":{"type":"Point","coordinates":[-121.113333,49.114167]}},{"type":"Feature","properties":{"StationName":"BIGCREEKUP","NativeID":"111078","Elevation":"1692","JanuaryTmin":"-133"},"geometry":{"type":"Point","coordinates":[-123.116667,51.25]}},{"type":"Feature","properties":{"StationName":"MANHARDT","NativeID":"112096","Elevation":"381","JanuaryTmin":"-25"},"geometry":{"type":"Point","coordinates":[-119.55,49.85]}},{"type":"Feature","properties":{"StationName":"JOHNBARNAY","NativeID":"112097","Elevation":"380","JanuaryTmin":"-32"},"geometry":{"type":"Point","coordinates":[-119.543056,49.120833]}},{"type":"Feature","properties":{"StationName":"GEEN","NativeID":"112098","Elevation":"400","JanuaryTmin":"-37"},"geometry":{"type":"Point","coordinates":[-119.490278,49.8125]}},{"type":"Feature","properties":{"StationName":"HOLT","NativeID":"112099","Elevation":"395","JanuaryTmin":"-42"},"geometry":{"type":"Point","coordinates":[-119.710833,49.089722]}},{"type":"Feature","properties":{"StationName":"BERTRUMCK","NativeID":"112118","Elevation":"490","JanuaryTmin":"-28"},"geometry":{"type":"Point","coordinates":[-119.558333,49.779167]}},{"type":"Feature","properties":{"StationName":"PENTICTON2","NativeID":"112124","Elevation":"1570","JanuaryTmin":"-104"},"geometry":{"type":"Point","coordinates":[-119.369444,49.638889]}},{"type":"Feature","properties":{"StationName":"DENNISCK","NativeID":"112125","Elevation":"1792","JanuaryTmin":"-98"},"geometry":{"type":"Point","coordinates":[-119.4125,49.623611]}},{"type":"Feature","properties":{"StationName":"CHENG","NativeID":"112126","Elevation":"1804","JanuaryTmin":"-119"},"geometry":{"type":"Point","coordinates":[-119.420833,49.604167]}},{"type":"Feature","properties":{"StationName":"OLIVERTEST","NativeID":"112152","Elevation":"400","JanuaryTmin":"-40"},"geometry":{"type":"Point","coordinates":[-119.563056,49.231944]}},{"type":"Feature","properties":{"StationName":"INKANEEP3","NativeID":"112300","Elevation":"351","JanuaryTmin":"-27"},"geometry":{"type":"Point","coordinates":[-119.521667,49.206944]}},{"type":"Feature","properties":{"StationName":"GLENWOOD","NativeID":"112301","Elevation":"412","JanuaryTmin":"-34"},"geometry":{"type":"Point","coordinates":[-119.444444,50.133333]}},{"type":"Feature","properties":{"StationName":"CRANSTON","NativeID":"112302","Elevation":"366","JanuaryTmin":"-33"},"geometry":{"type":"Point","coordinates":[-119.580556,49.109722]}},{"type":"Feature","properties":{"StationName":"KELOKA","NativeID":"112303","Elevation":"421","JanuaryTmin":"-51"},"geometry":{"type":"Point","coordinates":[-119.440278,49.856111]}},{"type":"Feature","properties":{"StationName":"FORDMTBCFS","NativeID":"112519","Elevation":"378","JanuaryTmin":"-13"},"geometry":{"type":"Point","coordinates":[-121.6575,49.0975]}},{"type":"Feature","properties":{"StationName":"CENTRECREEK","NativeID":"112520","Elevation":"488","JanuaryTmin":"-27"},"geometry":{"type":"Point","coordinates":[-121.505833,49.103056]}},{"type":"Feature","properties":{"StationName":"BIGWHITE","NativeID":"113022","Elevation":"1844","JanuaryTmin":"-102"},"geometry":{"type":"Point","coordinates":[-118.933333,49.733333]}},{"type":"Feature","properties":{"StationName":"UPRTRAPPING","NativeID":"113023","Elevation":"1204","JanuaryTmin":"-86"},"geometry":{"type":"Point","coordinates":[-118.935,49.7125]}},{"type":"Feature","properties":{"StationName":"LWRTRAPPING","NativeID":"113024","Elevation":"899","JanuaryTmin":"-101"},"geometry":{"type":"Point","coordinates":[-119.045833,49.5625]}},{"type":"Feature","properties":{"StationName":"NELSONAP","NativeID":"114007","Elevation":"1750","JanuaryTmin":"-37"},"geometry":{"type":"Point","coordinates":[-117.297778,49.493611]}},{"type":"Feature","properties":{"StationName":"HARROP","NativeID":"114148","Elevation":"535","JanuaryTmin":"-43"},"geometry":{"type":"Point","coordinates":[-117.041667,49.603333]}},{"type":"Feature","properties":{"StationName":"AQUEDUCT48","NativeID":"115505","Elevation":"1442","JanuaryTmin":"-101"},"geometry":{"type":"Point","coordinates":[-114.848611,49.738333]}},{"type":"Feature","properties":{"StationName":"AQUEDUCT55","NativeID":"115506","Elevation":"1652","JanuaryTmin":"-100"},"geometry":{"type":"Point","coordinates":[-114.843056,49.743611]}},{"type":"Feature","properties":{"StationName":"BRITT6200","NativeID":"115509","Elevation":"1835","JanuaryTmin":"-132"},"geometry":{"type":"Point","coordinates":[-114.927778,50.236667]}},{"type":"Feature","properties":{"StationName":"FORSYTHCREE","NativeID":"115536","Elevation":"1486","JanuaryTmin":"-113"},"geometry":{"type":"Point","coordinates":[-114.948611,50.259722]}},{"type":"Feature","properties":{"StationName":"MORRISEYASB","NativeID":"115555","Elevation":"942","JanuaryTmin":"-89"},"geometry":{"type":"Point","coordinates":[-115.019444,49.391667]}},{"type":"Feature","properties":{"StationName":"ODLUM","NativeID":"115556","Elevation":"1737","JanuaryTmin":"-170"},"geometry":{"type":"Point","coordinates":[-114.983333,50.5]}},{"type":"Feature","properties":{"StationName":"BCCCNSTCMP","NativeID":"115563","Elevation":"2000","JanuaryTmin":"-124"},"geometry":{"type":"Point","coordinates":[-114.866667,50.085278]}},{"type":"Feature","properties":{"StationName":"SPARWOODAP","NativeID":"115568","Elevation":"1250","JanuaryTmin":"-116"},"geometry":{"type":"Point","coordinates":[-114.895833,49.849167]}},{"type":"Feature","properties":{"StationName":"SUMMITLAKE","NativeID":"115571","Elevation":"1375","JanuaryTmin":"-123"},"geometry":{"type":"Point","coordinates":[-114.714444,49.651944]}},{"type":"Feature","properties":{"StationName":"MINNIELK2","NativeID":"116033","Elevation":"1073","JanuaryTmin":"-111"},"geometry":{"type":"Point","coordinates":[-120.412222,50.005]}},{"type":"Feature","properties":{"StationName":"DRINKWATER","NativeID":"116310","Elevation":"335","JanuaryTmin":"-61"},"geometry":{"type":"Point","coordinates":[-121.297222,50.629167]}},{"type":"Feature","properties":{"StationName":"CHUTTERRAN","NativeID":"116409","Elevation":"634","JanuaryTmin":"-80"},"geometry":{"type":"Point","coordinates":[-120.689444,50.138889]}},{"type":"Feature","properties":{"StationName":"CHAPPERONLK","NativeID":"116411","Elevation":"991","JanuaryTmin":"-101"},"geometry":{"type":"Point","coordinates":[-120.023056,50.205833]}},{"type":"Feature","properties":{"StationName":"LAUDERRANCH","NativeID":"116412","Elevation":"933","JanuaryTmin":"-84"},"geometry":{"type":"Point","coordinates":[-120.3375,50.205833]}},{"type":"Feature","properties":{"StationName":"ANDERSONRAN","NativeID":"116414","Elevation":"835","JanuaryTmin":"-88"},"geometry":{"type":"Point","coordinates":[-120.925556,49.984722]}},{"type":"Feature","properties":{"StationName":"RORISONRAN","NativeID":"116416","Elevation":"1141","JanuaryTmin":"-139"},"geometry":{"type":"Point","coordinates":[-120.871944,50.558333]}},{"type":"Feature","properties":{"StationName":"FISHER","NativeID":"118047","Elevation":"792","JanuaryTmin":"-145"},"geometry":{"type":"Point","coordinates":[-122.243056,55.775833]}},{"type":"Feature","properties":{"StationName":"CUTBANK","NativeID":"118085","Elevation":"789","JanuaryTmin":"-150"},"geometry":{"type":"Point","coordinates":[-120.461944,55.515556]}},