{"type":"FeatureCollection","features":[{"type":"Feature","properties":{"StationName":"SUMMIT","NativeID":"11","Elevation":"857","JulyTmax":"205"},"geometry":{"type":"Point","coordinates":[-124.635237,48.932558]}},{"type":"Feature","properties":{"StationName":"ZZRENFREW","NativeID":"16","Elevation":"0","JulyTmax":"179"},"geometry":{"type":"Point","coordinates":[-124.41,48.5783]}},{"type":"Feature","properties":{"StationName":"MENZIESCAMP","NativeID":"19","Elevation":"438","JulyTmax":"232"},"geometry":{"type":"Point","coordinates":[-125.7887,50.0486]}},{"type":"Feature","properties":{"StationName":"WOSSCAMP","NativeID":"21","Elevation":"70","JulyTmax":"224"},"geometry":{"type":"Point","coordinates":[-126.6,50.2]}},{"type":"Feature","properties":{"StationName":"ZZCOUS","NativeID":"23","Elevation":"455","JulyTmax":"221"},"geometry":{"type":"Point","coordinates":[-124.9083,49.2267]}},{"type":"Feature","properties":{"StationName":"ZZVIEW(FD7","NativeID":"29","Elevation":"300","JulyTmax":"217"},"geometry":{"type":"Point","coordinates":[-125.3333,49.3883]}},{"type":"Feature","properties":{"StationName":"ZZPASS(CAM","NativeID":"36","Elevation":"974","JulyTmax":"166"},"geometry":{"type":"Point","coordinates":[-124.6483,49.2717]}},{"type":"Feature","properties":{"StationName":"BEAVERCREEK","NativeID":"37","Elevation":"100","JulyTmax":"254"},"geometry":{"type":"Point","coordinates":[-124.9333,49.3775]}},{"type":"Feature","properties":{"StationName":"ZZCATSEARS","NativeID":"39","Elevation":"50","JulyTmax":"206"},"geometry":{"type":"Point","coordinates":[-125.385,49.1933]}},{"type":"Feature","properties":{"StationName":"ZZPYELAKE","NativeID":"41","Elevation":"224","JulyTmax":"215"},"geometry":{"type":"Point","coordinates":[-125.5867,50.3117]}},{"type":"Feature","properties":{"StationName":"SALTSPRING2","NativeID":"45","Elevation":"34","JulyTmax":"219"},"geometry":{"type":"Point","coordinates":[-123.474,48.774]}},{"type":"Feature","properties":{"StationName":"SECHELTORCH","NativeID":"46","Elevation":"75","JulyTmax":"217"},"geometry":{"type":"Point","coordinates":[-123.719,49.45]}},{"type":"Feature","properties":{"StationName":"ZZSECHELT","NativeID":"47","Elevation":"100","JulyTmax":"216"},"geometry":{"type":"Point","coordinates":[-123.715018,49.458316]}},{"type":"Feature","properties":{"StationName":"BOWSER","NativeID":"56","Elevation":"184","JulyTmax":"232"},"geometry":{"type":"Point","coordinates":[-124.7033,49.4367]}},{"type":"Feature","properties":{"StationName":"CEDAR","NativeID":"59","Elevation":"100","JulyTmax":"239"},"geometry":{"type":"Point","coordinates":[-123.875,49.0483]}},{"type":"Feature","properties":{"StationName":"ZZSALTSPRIN","NativeID":"60","Elevation":"150","JulyTmax":"232"},"geometry":{"type":"Point","coordinates":[-123.4533,48.7783]}},{"type":"Feature","properties":{"StationName":"ZZSQUAMISH","NativeID":"63","Elevation":"200","JulyTmax":"253"},"geometry":{"type":"Point","coordinates":[-123.3967,50.1167]}},{"type":"Feature","properties":{"StationName":"BIGSILVER","NativeID":"66","Elevation":"8","JulyTmax":"253"},"geometry":{"type":"Point","coordinates":[-121.8596,49.691]}},{"type":"Feature","properties":{"StationName":"HAIGCAMP","NativeID":"67","Elevation":"162","JulyTmax":"237"},"geometry":{"type":"Point","coordinates":[-121.492,49.369]}},{"type":"Feature","properties":{"StationName":"UBCRESEARCH","NativeID":"72","Elevation":"98","JulyTmax":"233"},"geometry":{"type":"Point","coordinates":[-122.5733,49.265]}},{"type":"Feature","properties":{"StationName":"CHILLIWACKN","NativeID":"74","Elevation":"295","JulyTmax":"225"},"geometry":{"type":"Point","coordinates":[-121.6633,49.0983]}},{"type":"Feature","properties":{"StationName":"TOBACAMP","NativeID":"75","Elevation":"1","JulyTmax":"253"},"geometry":{"type":"Point","coordinates":[-124.073,50.568]}},{"type":"Feature","properties":{"StationName":"SCARCREEK","NativeID":"82","Elevation":"50","JulyTmax":"257"},"geometry":{"type":"Point","coordinates":[-125.0283,51.19]}},{"type":"Feature","properties":{"StationName":"ZZTOMBROWN","NativeID":"87","Elevation":"40","JulyTmax":"222"},"geometry":{"type":"Point","coordinates":[-125.808294,50.597834]}},{"type":"Feature","properties":{"StationName":"HONNA","NativeID":"93","Elevation":"100","JulyTmax":"190"},"geometry":{"type":"Point","coordinates":[-132.135,53.255]}},{"type":"Feature","properties":{"StationName":"ZZCOPPER","NativeID":"97","Elevation":"287","JulyTmax":"170"},"geometry":{"type":"Point","coordinates":[-131.86,53.15]}},{"type":"Feature","properties":{"StationName":"ZZKITSAULT","NativeID":"98","Elevation":"100","JulyTmax":"198"},"geometry":{"type":"Point","coordinates":[-129.475,55.4583]}},{"type":"Feature","properties":{"StationName":"MACHMELL(MB","NativeID":"101","Elevation":"366","JulyTmax":"220"},"geometry":{"type":"Point","coordinates":[-126.4517,51.5933]}},{"type":"Feature","properties":{"StationName":"ZZKEMANO","NativeID":"104","Elevation":"17","JulyTmax":"227"},"geometry":{"type":"Point","coordinates":[-127.9433,53.5633]}},{"type":"Feature","properties":{"StationName":"ROSSWOOD","NativeID":"105","Elevation":"137","JulyTmax":"225"},"geometry":{"type":"Point","coordinates":[-128.8583,54.915]}},{"type":"Feature","properties":{"StationName":"KITPARK","NativeID":"106","Elevation":"75","JulyTmax":"226"},"geometry":{"type":"Point","coordinates":[-128.5767,54.17]}},{"type":"Feature","properties":{"StationName":"DEASELKFS","NativeID":"108","Elevation":"820","JulyTmax":"193"},"geometry":{"type":"Point","coordinates":[-129.982887,58.427585]}},{"type":"Feature","properties":{"StationName":"TELEGRAPHCR","NativeID":"110","Elevation":"382","JulyTmax":"208"},"geometry":{"type":"Point","coordinates":[-131.1967,57.9033]}},{"type":"Feature","properties":{"StationName":"ATLIN","NativeID":"111","Elevation":"729","JulyTmax":"188"},"geometry":{"type":"Point","coordinates":[-133.6667,59.5833]}},{"type":"Feature","properties":{"StationName":"ISKUT","NativeID":"112","Elevation":"890","JulyTmax":"192"},"geometry":{"type":"Point","coordinates":[-130.0083,57.8567]}},{"type":"Feature","properties":{"StationName":"BOBQUINNLK","NativeID":"113","Elevation":"609","JulyTmax":"193"},"geometry":{"type":"Point","coordinates":[-130.2533,56.9833]}},{"type":"Feature","properties":{"StationName":"SIERRA","NativeID":"117","Elevation":"584","JulyTmax":"216"},"geometry":{"type":"Point","coordinates":[-121.3967,58.8381]}},{"type":"Feature","properties":{"StationName":"HELMUT","NativeID":"118","Elevation":"598","JulyTmax":"212"},"geometry":{"type":"Point","coordinates":[-120.789,59.421]}},{"type":"Feature","properties":{"StationName":"NELSONFORKS","NativeID":"119","Elevation":"604","JulyTmax":"208"},"geometry":{"type":"Point","coordinates":[-124.0985,59.6173]}},{"type":"Feature","properties":{"StationName":"SILVER","NativeID":"120","Elevation":"835","JulyTmax":"207"},"geometry":{"type":"Point","coordinates":[-121.297,57.4968]}},{"type":"Feature","properties":{"StationName":"PADDY","NativeID":"121","Elevation":"729","JulyTmax":"216"},"geometry":{"type":"Point","coordinates":[-120.2368,57.7818]}},{"type":"Feature","properties":{"StationName":"GRAHAM","NativeID":"124","Elevation":"768","JulyTmax":"225"},"geometry":{"type":"Point","coordinates":[-122.4575,56.4347]}},{"type":"Feature","properties":{"StationName":"TOADRIVER","NativeID":"126","Elevation":"711","JulyTmax":"216"},"geometry":{"type":"Point","coordinates":[-125.3107,58.8659]}},{"type":"Feature","properties":{"StationName":"TUMBLER(DENI","NativeID":"127","Elevation":"942","JulyTmax":"207"},"geometry":{"type":"Point","coordinates":[-120.9341,55.0274]}},{"type":"Feature","properties":{"StationName":"PINKMTN","NativeID":"129","Elevation":"989","JulyTmax":"204"},"geometry":{"type":"Point","coordinates":[-122.5577,57.0765]}},{"type":"Feature","properties":{"StationName":"MUSKWA","NativeID":"131","Elevation":"780","JulyTmax":"210"},"geometry":{"type":"Point","coordinates":[-123.6163,57.8925]}},{"type":"Feature","properties":{"StationName":"HUDSONHOPE","NativeID":"132","Elevation":"704","JulyTmax":"226"},"geometry":{"type":"Point","coordinates":[-121.9902,56.0347]}},{"type":"Feature","properties":{"StationName":"WONOWON","NativeID":"136","Elevation":"967","JulyTmax":"197"},"geometry":{"type":"Point","coordinates":[-121.7654,56.7185]}},{"type":"Feature","properties":{"StationName":"REDDEER","NativeID":"138","Elevation":"1306","JulyTmax":"182"},"geometry":{"type":"Point","coordinates":[-120.5762,54.633]}},{"type":"Feature","properties":{"StationName":"LEMORAY","NativeID":"140","Elevation":"757","JulyTmax":"214"},"geometry":{"type":"Point","coordinates":[-122.5171,55.525]}},{"type":"Feature","properties":{"StationName":"MANSON","NativeID":"141","Elevation":"1047","JulyTmax":"195"},"geometry":{"type":"Point","coordinates":[-124.232,55.5799]}},{"type":"Feature","properties":{"StationName":"TABLERIVER","NativeID":"144","Elevation":"760","JulyTmax":"216"},"geometry":{"type":"Point","coordinates":[-122.2732,54.7159]}},{"type":"Feature","properties":{"StationName":"FORTSTJAME","NativeID":"146","Elevation":"750","JulyTmax":"216"},"geometry":{"type":"Point","coordinates":[-124.261,54.3941]}},{"type":"Feature","properties":{"StationName":"BEARLAKE","NativeID":"149","Elevation":"739","JulyTmax":"220"},"geometry":{"type":"Point","coordinates":[-122.691,54.5094]}},{"type":"Feature","properties":{"StationName":"NABESHE","NativeID":"151","Elevation":"1108","JulyTmax":"191"},"geometry":{"type":"Point","coordinates":[-123.3656,56.3643]}},{"type":"Feature","properties":{"StationName":"SIFTON","NativeID":"152","Elevation":"985","JulyTmax":"196"},"geometry":{"type":"Point","coordinates":[-126.1168,57.8518]}},{"type":"Feature","properties":{"StationName":"MCLEODLAKE","NativeID":"153","Elevation":"915","JulyTmax":"202"},"geometry":{"type":"Point","coordinates":[-123.0773,54.7259]}},{"type":"Feature","properties":{"StationName":"WITCH","NativeID":"154","Elevation":"1030","JulyTmax":"190"},"geometry":{"type":"Point","coordinates":[-124.265,55.023]}},{"type":"Feature","properties":{"StationName":"MACKENZIEFS","NativeID":"155","Elevation":"690","JulyTmax":"218"},"geometry":{"type":"Point","coordinates":[-123.1347,55.3042]}},{"type":"Feature","properties":{"StationName":"SUSTUT","NativeID":"156","Elevation":"871","JulyTmax":"204"},"geometry":{"type":"Point","coordinates":[-127.0339,56.3287]}},{"type":"Feature","properties":{"StationName":"VANDERHOOF","NativeID":"158","Elevation":"678","JulyTmax":"220"},"geometry":{"type":"Point","coordinates":[-124.0102,54.0555]}},{"type":"Feature","properties":{"StationName":"NORTHCHILCO","NativeID":"159","Elevation":"850","JulyTmax":"209"},"geometry":{"type":"Point","coordinates":[-123.7541,54.1546]}},{"type":"Feature","properties":{"StationName":"GRASSYPLAIN","NativeID":"161","Elevation":"944","JulyTmax":"199"},"geometry":{"type":"Point","coordinates":[-125.8667,53.9467]}},{"type":"Feature","properties":{"StationName":"HOUSTON(DUNG","NativeID":"162","Elevation":"608","JulyTmax":"223"},"geometry":{"type":"Point","coordinates":[-126.6267,54.4117]}},{"type":"Feature","properties":{"StationName":"LOVELLCOVE","NativeID":"163","Elevation":"990","JulyTmax":"199"},"geometry":{"type":"Point","coordinates":[-126.0513,55.6885]}},{"type":"Feature","properties":{"StationName":"EUTSUK","NativeID":"164","Elevation":"1036","JulyTmax":"197"},"geometry":{"type":"Point","coordinates":[-126.17,53.27]}},{"type":"Feature","properties":{"StationName":"MOOSELAKE","NativeID":"165","Elevation":"1109","JulyTmax":"201"},"geometry":{"type":"Point","coordinates":[-125.4122,53.0715]}},{"type":"Feature","properties":{"StationName":"KLUSKUS","NativeID":"166","Elevation":"1137","JulyTmax":"200"},"geometry":{"type":"Point","coordinates":[-124.5121,53.3831]}},{"type":"Feature","properties":{"StationName":"AUGIERLAKE","NativeID":"167","Elevation":"900","JulyTmax":"206"},"geometry":{"type":"Point","coordinates":[-125.52,54.3633]}},{"type":"Feature","properties":{"StationName":"UPPERFULTON","NativeID":"169","Elevation":"900","JulyTmax":"195"},"geometry":{"type":"Point","coordinates":[-126.8,55.0333]}},{"type":"Feature","properties":{"StationName":"EASTOOTSA","NativeID":"170","Elevation":"1089","JulyTmax":"197"},"geometry":{"type":"Point","coordinates":[-125.7717,53.5017]}},{"type":"Feature","properties":{"StationName":"LEOCREEK","NativeID":"171","Elevation":"915","JulyTmax":"199"},"geometry":{"type":"Point","coordinates":[-125.4774,55.0818]}},{"type":"Feature","properties":{"StationName":"NILKITKWA","NativeID":"172","Elevation":"978","JulyTmax":"189"},"geometry":{"type":"Point","coordinates":[-126.5783,55.5533]}},{"type":"Feature","properties":{"StationName":"NORTHBABINE","NativeID":"173","Elevation":"951","JulyTmax":"193"},"geometry":{"type":"Point","coordinates":[-126.2117,55.1367]}},{"type":"Feature","properties":{"StationName":"BEDNESTI","NativeID":"175","Elevation":"858","JulyTmax":"212"},"geometry":{"type":"Point","coordinates":[-123.3233,53.8654]}},{"type":"Feature","properties":{"StationName":"PEDEN","NativeID":"178","Elevation":"747","JulyTmax":"209"},"geometry":{"type":"Point","coordinates":[-126.5217,53.9867]}},{"type":"Feature","properties":{"StationName":"NADINA","NativeID":"179","Elevation":"954","JulyTmax":"200"},"geometry":{"type":"Point","coordinates":[-126.9278,53.9425]}},{"type":"Feature","properties":{"StationName":"MCBRIDELAKE","NativeID":"180","Elevation":"815","JulyTmax":"212"},"geometry":{"type":"Point","coordinates":[-127.4017,54.07]}},{"type":"Feature","properties":{"StationName":"BURNSLAKE8","NativeID":"181","Elevation":"830","JulyTmax":"210"},"geometry":{"type":"Point","coordinates":[-125.755,54.2567]}},{"type":"Feature","properties":{"StationName":"GANOKWA","NativeID":"182","Elevation":"855","JulyTmax":"201"},"geometry":{"type":"Point","coordinates":[-126.9483,54.805]}},{"type":"Feature","properties":{"StationName":"HIXON","NativeID":"187","Elevation":"615","JulyTmax":"241"},"geometry":{"type":"Point","coordinates":[-122.591,53.4265]}},{"type":"Feature","properties":{"StationName":"CHILAKO","NativeID":"189","Elevation":"814","JulyTmax":"228"},"geometry":{"type":"Point","coordinates":[-123.6092,53.4937]}},{"type":"Feature","properties":{"StationName":"JERRY","NativeID":"190","Elevation":"997","JulyTmax":"213"},"geometry":{"type":"Point","coordinates":[-122.1062,53.5266]}},{"type":"Feature","properties":{"StationName":"MCGREGOR","NativeID":"191","Elevation":"638","JulyTmax":"233"},"geometry":{"type":"Point","coordinates":[-121.8266,54.0778]}},{"type":"Feature","properties":{"StationName":"MCGREGOR2","NativeID":"192","Elevation":"975","JulyTmax":"207"},"geometry":{"type":"Point","coordinates":[-120.6361,53.9292]}},{"type":"Feature","properties":{"StationName":"BOWRONHAGGE","NativeID":"193","Elevation":"945","JulyTmax":"223"},"geometry":{"type":"Point","coordinates":[-121.5589,53.4632]}},{"type":"Feature","properties":{"StationName":"VALEMOUNT1","NativeID":"194","Elevation":"797","JulyTmax":"242"},"geometry":{"type":"Point","coordinates":[-119.2973,52.87]}},{"type":"Feature","properties":{"StationName":"MCBRIDE","NativeID":"195","Elevation":"716","JulyTmax":"226"},"geometry":{"type":"Point","coordinates":[-120.1522,53.295]}},{"type":"Feature","properties":{"StationName":"CATFISH","NativeID":"199","Elevation":"866","JulyTmax":"213"},"geometry":{"type":"Point","coordinates":[-120.8567,53.5765]}},{"type":"Feature","properties":{"StationName":"VALEMOUNT2","NativeID":"200","Elevation":"1195","JulyTmax":"213"},"geometry":{"type":"Point","coordinates":[-119.3148,52.7881]}},{"type":"Feature","properties":{"StationName":"HOLMES","NativeID":"201","Elevation":"1179","JulyTmax":"218"},"geometry":{"type":"Point","coordinates":[-119.7132,53.3454]}},{"type":"Feature","properties":{"StationName":"TONQUIN-PAR","NativeID":"202","Elevation":"1667","JulyTmax":"181"},"geometry":{"type":"Point","coordinates":[-118.4701,52.7027]}},{"type":"Feature","properties":{"StationName":"TAUTRI","NativeID":"206","Elevation":"1085","JulyTmax":"207"},"geometry":{"type":"Point","coordinates":[-123.25,52.535]}},{"type":"Feature","properties":{"StationName":"TATLALAKE","NativeID":"208","Elevation":"945","JulyTmax":"231"},"geometry":{"type":"Point","coordinates":[-124.605,51.9067]}},{"type":"Feature","properties":{"StationName":"ALEXISCREEK","NativeID":"209","Elevation":"791","JulyTmax":"247"},"geometry":{"type":"Point","coordinates":[-123.2717,52.0767]}},{"type":"Feature","properties":{"StationName":"RISKECREEK","NativeID":"210","Elevation":"884","JulyTmax":"236"},"geometry":{"type":"Point","coordinates":[-122.51,51.96]}},{"type":"Feature","properties":{"StationName":"NAZKO","NativeID":"211","Elevation":"910","JulyTmax":"228"},"geometry":{"type":"Point","coordinates":[-123.5958,52.9575]}},{"type":"Feature","properties":{"StationName":"PLACELK.","NativeID":"212","Elevation":"1065","JulyTmax":"222"},"geometry":{"type":"Point","coordinates":[-122,51.8167]}},{"type":"Feature","properties":{"StationName":"ANAHIMLAKE","NativeID":"213","Elevation":"1096","JulyTmax":"204"},"geometry":{"type":"Point","coordinates":[-125.3033,52.4567]}},{"type":"Feature","properties":{"StationName":"NEMIAH","NativeID":"216","Elevation":"1220","JulyTmax":"206"},"geometry":{"type":"Point","coordinates":[-123.8183,51.48]}},{"type":"Feature","properties":{"StationName":"LONEBUTTE","NativeID":"218","Elevation":"1158","JulyTmax":"215"},"geometry":{"type":"Point","coordinates":[-121.162,51.507]}},{"type":"Feature","properties":{"StationName":"BALDFACE","NativeID":"221","Elevation":"1666","JulyTmax":"179"},"geometry":{"type":"Point","coordinates":[-124.4823,52.7101]}},{"type":"Feature","properties":{"StationName":"GASPARD","NativeID":"222","Elevation":"1675","JulyTmax":"174"},"geometry":{"type":"Point","coordinates":[-122.6617,51.4517]}},{"type":"Feature","properties":{"StationName":"KNIFE","NativeID":"225","Elevation":"945","JulyTmax":"242"},"geometry":{"type":"Point","coordinates":[-121.885,52.065]}},{"type":"Feature","properties":{"StationName":"MIDDLELAKE","NativeID":"226","Elevation":"915","JulyTmax":"233"},"geometry":{"type":"Point","coordinates":[-124.875,51.7017]}},{"type":"Feature","properties":{"StationName":"GAVIN","NativeID":"227","Elevation":"1081","JulyTmax":"212"},"geometry":{"type":"Point","coordinates":[-121.7417,52.47]}},{"type":"Feature","properties":{"StationName":"BENSON","NativeID":"228","Elevation":"1006","JulyTmax":"212"},"geometry":{"type":"Point","coordinates":[-122.065,52.91]}},{"type":"Feature","properties":{"StationName":"HORSEFLY","NativeID":"230","Elevation":"701","JulyTmax":"239"},"geometry":{"type":"Point","coordinates":[-121.3967,52.33]}},{"type":"Feature","properties":{"StationName":"ZZTHUYALAK","NativeID":"231","Elevation":"1432","JulyTmax":"199"},"geometry":{"type":"Point","coordinates":[-120.34,51.4117]}},{"type":"Feature","properties":{"StationName":"COLDSCAURLA","NativeID":"232","Elevation":"1158","JulyTmax":"223"},"geometry":{"type":"Point","coordinates":[-120.39,51.725]}},{"type":"Feature","properties":{"StationName":"TALCHAKO(MB","NativeID":"233","Elevation":"244","JulyTmax":"241"},"geometry":{"type":"Point","coordinates":[-126.0283,52.2517]}},{"type":"Feature","properties":{"StationName":"TIMOTHY","NativeID":"234","Elevation":"1161","JulyTmax":"216"},"geometry":{"type":"Point","coordinates":[-121.389,51.913]}},{"type":"Feature","properties":{"StationName":"YOUNGLAKE","NativeID":"235","Elevation":"1170","JulyTmax":"222"},"geometry":{"type":"Point","coordinates":[-120.9976,51.2378]}},{"type":"Feature","properties":{"StationName":"MEADOWLAKE","NativeID":"236","Elevation":"1070","JulyTmax":"221"},"geometry":{"type":"Point","coordinates":[-121.7167,51.375]}},{"type":"Feature","properties":{"StationName":"CLEARWATER","NativeID":"239","Elevation":"396","JulyTmax":"280"},"geometry":{"type":"Point","coordinates":[-120.095,51.6283]}},{"type":"Feature","properties":{"StationName":"ZZHEMP(NEC","NativeID":"242","Elevation":"762","JulyTmax":"242"},"geometry":{"type":"Point","coordinates":[-120.03,51.925]}},{"type":"Feature","properties":{"StationName":"EASTBARRIER","NativeID":"243","Elevation":"671","JulyTmax":"267"},"geometry":{"type":"Point","coordinates":[-119.8817,51.2533]}},{"type":"Feature","properties":{"StationName":"WINDYMOUNTA","NativeID":"244","Elevation":"1580","JulyTmax":"198"},"geometry":{"type":"Point","coordinates":[-120.65,51.67]}},{"type":"Feature","properties":{"StationName":"ZZVAVENBY(","NativeID":"249","Elevation":"792","JulyTmax":"252"},"geometry":{"type":"Point","coordinates":[-119.6733,51.585]}},{"type":"Feature","properties":{"StationName":"HARBOURLAKE","NativeID":"250","Elevation":"1372","JulyTmax":"184"},"geometry":{"type":"Point","coordinates":[-119.115,51.5233]}},{"type":"Feature","properties":{"StationName":"DECEPTION","NativeID":"251","Elevation":"1170","JulyTmax":"219"},"geometry":{"type":"Point","coordinates":[-120.608,51.967]}},{"type":"Feature","properties":{"StationName":"CAHILTY","NativeID":"253","Elevation":"1615","JulyTmax":"184"},"geometry":{"type":"Point","coordinates":[-119.8383,50.8883]}},{"type":"Feature","properties":{"StationName":"LIKELYRS","NativeID":"255","Elevation":"1046","JulyTmax":"224"},"geometry":{"type":"Point","coordinates":[-121.5133,52.615]}},{"type":"Feature","properties":{"StationName":"BLUERIVERF","NativeID":"257","Elevation":"683","JulyTmax":"253"},"geometry":{"type":"Point","coordinates":[-119.2983,52.12]}},{"type":"Feature","properties":{"StationName":"ZZAVOLA(NE","NativeID":"258","Elevation":"518","JulyTmax":"248"},"geometry":{"type":"Point","coordinates":[-119.3267,51.7817]}},{"type":"Feature","properties":{"StationName":"BIGVALLEY","NativeID":"262","Elevation":"1355","JulyTmax":"168"},"geometry":{"type":"Point","coordinates":[-121.7617,53.2617]}},{"type":"Feature","properties":{"StationName":"MATHEW","NativeID":"263","Elevation":"1108","JulyTmax":"202"},"geometry":{"type":"Point","coordinates":[-120.9117,52.91]}},{"type":"Feature","properties":{"StationName":"PRAIRIECREE","NativeID":"264","Elevation":"1015","JulyTmax":"216"},"geometry":{"type":"Point","coordinates":[-120.985,52.3917]}},{"type":"Feature","properties":{"StationName":"ZZPLEASANT","NativeID":"265","Elevation":"914","JulyTmax":"210"},"geometry":{"type":"Point","coordinates":[-119.495,52.5467]}},{"type":"Feature","properties":{"StationName":"WELLSGRAY","NativeID":"266","Elevation":"975","JulyTmax":"229"},"geometry":{"type":"Point","coordinates":[-120.2433,52.3417]}},{"type":"Feature","properties":{"StationName":"BERRY","NativeID":"267","Elevation":"1524","JulyTmax":"181"},"geometry":{"type":"Point","coordinates":[-119.4133,51.9783]}},{"type":"Feature","properties":{"StationName":"ZZTUMTUM","NativeID":"268","Elevation":"975","JulyTmax":"241"},"geometry":{"type":"Point","coordinates":[-119.1367,51.8333]}},{"type":"Feature","properties":{"StationName":"GOSNEL","NativeID":"270","Elevation":"1859","JulyTmax":"151"},"geometry":{"type":"Point","coordinates":[-119.175,52.4533]}},{"type":"Feature","properties":{"StationName":"NIAGRA","NativeID":"271","Elevation":"910","JulyTmax":"235"},"geometry":{"type":"Point","coordinates":[-120.3583,52.625]}},{"type":"Feature","properties":{"StationName":"ZZLAMONT","NativeID":"278","Elevation":"1615","JulyTmax":"171"},"geometry":{"type":"Point","coordinates":[-120.795,49.3233]}},{"type":"Feature","properties":{"StationName":"THYNNE","NativeID":"279","Elevation":"1524","JulyTmax":"195"},"geometry":{"type":"Point","coordinates":[-120.8667,49.715]}},{"type":"Feature","properties":{"StationName":"LILLOOET","NativeID":"280","Elevation":"402","JulyTmax":"275"},"geometry":{"type":"Point","coordinates":[-121.8883,50.6717]}},{"type":"Feature","properties":{"StationName":"BOTANIE","NativeID":"281","Elevation":"1554","JulyTmax":"171"},"geometry":{"type":"Point","coordinates":[-121.57,50.4]}},{"type":"Feature","properties":{"StationName":"ZZDILLARD","NativeID":"282","Elevation":"1341","JulyTmax":"202"},"geometry":{"type":"Point","coordinates":[-120.4217,49.7667]}},{"type":"Feature","properties":{"StationName":"BRENDAMINES","NativeID":"283","Elevation":"1493","JulyTmax":"199"},"geometry":{"type":"Point","coordinates":[-119.9933,49.8683]}},{"type":"Feature","properties":{"StationName":"ZZSPIUSCRE","NativeID":"284","Elevation":"1036","JulyTmax":"218"},"geometry":{"type":"Point","coordinates":[-121.1183,49.9317]}},{"type":"Feature","properties":{"StationName":"TURTLE","NativeID":"286","Elevation":"640","JulyTmax":"269"},"geometry":{"type":"Point","coordinates":[-119.63,50.8033]}},{"type":"Feature","properties":{"StationName":"ZZSPRUCE","NativeID":"290","Elevation":"1462","JulyTmax":"187"},"geometry":{"type":"Point","coordinates":[-119.9967,50.4133]}},{"type":"Feature","properties":{"StationName":"GLIMPSE","NativeID":"291","Elevation":"1311","JulyTmax":"209"},"geometry":{"type":"Point","coordinates":[-120.2883,50.27]}},{"type":"Feature","properties":{"StationName":"D'ARCY","NativeID":"292","Elevation":"346","JulyTmax":"277"},"geometry":{"type":"Point","coordinates":[-122.498,50.5217]}},{"type":"Feature","properties":{"StationName":"MERRITTRS","NativeID":"294","Elevation":"640","JulyTmax":"253"},"geometry":{"type":"Point","coordinates":[-120.7457,50.0875]}},{"type":"Feature","properties":{"StationName":"LYTTONFS","NativeID":"297","Elevation":"295","JulyTmax":"288"},"geometry":{"type":"Point","coordinates":[-121.5867,50.2317]}},{"type":"Feature","properties":{"StationName":"FINTRY","NativeID":"298","Elevation":"670","JulyTmax":"276"},"geometry":{"type":"Point","coordinates":[-119.48,50.2067]}},{"type":"Feature","properties":{"StationName":"GOLDBRIDGE","NativeID":"300","Elevation":"731","JulyTmax":"263"},"geometry":{"type":"Point","coordinates":[-122.835,50.8533]}},{"type":"Feature","properties":{"StationName":"ASPENGROVE","NativeID":"302","Elevation":"1065","JulyTmax":"225"},"geometry":{"type":"Point","coordinates":[-120.62,49.948]}},{"type":"Feature","properties":{"StationName":"SPARKSLAKE","NativeID":"305","Elevation":"1036","JulyTmax":"251"},"geometry":{"type":"Point","coordinates":[-120.8667,50.9233]}},{"type":"Feature","properties":{"StationName":"FRENCHBAR(","NativeID":"306","Elevation":"1341","JulyTmax":"208"},"geometry":{"type":"Point","coordinates":[-122.255,51.03]}},{"type":"Feature","properties":{"StationName":"LEIGHTONLK","NativeID":"307","Elevation":"1204","JulyTmax":"219"},"geometry":{"type":"Point","coordinates":[-120.8367,50.6167]}},{"type":"Feature","properties":{"StationName":"ZZMANITOU","NativeID":"308","Elevation":"1432","JulyTmax":"193"},"geometry":{"type":"Point","coordinates":[-122.7683,51.0517]}},{"type":"Feature","properties":{"StationName":"GWYNETHLAKE","NativeID":"309","Elevation":"1250","JulyTmax":"207"},"geometry":{"type":"Point","coordinates":[-122.88,50.7967]}},{"type":"Feature","properties":{"StationName":"ZZDOT","NativeID":"310","Elevation":"853","JulyTmax":"251"},"geometry":{"type":"Point","coordinates":[-121.1533,50.2633]}},{"type":"Feature","properties":{"StationName":"MCLEANLK.","NativeID":"311","Elevation":"1128","JulyTmax":"233"},"geometry":{"type":"Point","coordinates":[-121.3583,50.7917]}},{"type":"Feature","properties":{"StationName":"ZZWENTWORTH","NativeID":"312","Elevation":"1646","JulyTmax":"161"},"geometry":{"type":"Point","coordinates":[-120.4867,50.9683]}},{"type":"Feature","properties":{"StationName":"NAHATLATCH","NativeID":"316","Elevation":"1400","JulyTmax":"253"},"geometry":{"type":"Point","coordinates":[-122.0207,49.9018]}},{"type":"Feature","properties":{"StationName":"ALLISONPASS","NativeID":"317","Elevation":"1215","JulyTmax":"225"},"geometry":{"type":"Point","coordinates":[-120.7667,49.0633]}},{"type":"Feature","properties":{"StationName":"ZZSMITHCRE","NativeID":"319","Elevation":"1402","JulyTmax":"205"},"geometry":{"type":"Point","coordinates":[-120.2183,49.3083]}},{"type":"Feature","properties":{"StationName":"ZZTYNER","NativeID":"320","Elevation":"1402","JulyTmax":"197"},"geometry":{"type":"Point","coordinates":[-120.9267,50.3133]}},{"type":"Feature","properties":{"StationName":"GREENSTONEH","NativeID":"321","Elevation":"1829","JulyTmax":"32"},"geometry":{"type":"Point","coordinates":[-120.64,50.6117]}},{"type":"Feature","properties":{"StationName":"AFTON","NativeID":"322","Elevation":"780","JulyTmax":"263"},"geometry":{"type":"Point","coordinates":[-120.4817,50.6733]}},{"type":"Feature","properties":{"StationName":"ZZMID-SLOPE","NativeID":"323","Elevation":"1250","JulyTmax":"215"},"geometry":{"type":"Point","coordinates":[-120.51487,50.584843]}},{"type":"Feature","properties":{"StationName":"ZZBOSTONBA","NativeID":"324","Elevation":"150","JulyTmax":"280"},"geometry":{"type":"Point","coordinates":[-121.435,49.855]}},{"type":"Feature","properties":{"StationName":"STEMWINDER","NativeID":"325","Elevation":"579","JulyTmax":"276"},"geometry":{"type":"Point","coordinates":[-120.1533,49.38]}},{"type":"Feature","properties":{"StationName":"PASKALAKE","NativeID":"326","Elevation":"1440","JulyTmax":"188"},"geometry":{"type":"Point","coordinates":[-120.674,50.504]}},{"type":"Feature","properties":{"StationName":"PENTICTONRS","NativeID":"328","Elevation":"427","JulyTmax":"279"},"geometry":{"type":"Point","coordinates":[-119.5533,49.5183]}},{"type":"Feature","properties":{"StationName":"ZZABERDEEN","NativeID":"330","Elevation":"1402","JulyTmax":"198"},"geometry":{"type":"Point","coordinates":[-118.9833,50.1233]}},{"type":"Feature","properties":{"StationName":"ASHNOLA(MB)","NativeID":"331","Elevation":"1335","JulyTmax":"198"},"geometry":{"type":"Point","coordinates":[-120.1833,49.14]}},{"type":"Feature","properties":{"StationName":"ZZCHOPAKA","NativeID":"333","Elevation":"359","JulyTmax":"295"},"geometry":{"type":"Point","coordinates":[-119.726548,49.000571]}},{"type":"Feature","properties":{"StationName":"MCCUDDY","NativeID":"334","Elevation":"1067","JulyTmax":"245"},"geometry":{"type":"Point","coordinates":[-119.415,49.1483]}},{"type":"Feature","properties":{"StationName":"ZZIDABELL","NativeID":"336","Elevation":"1250","JulyTmax":"222"},"geometry":{"type":"Point","coordinates":[-119.1767,49.7367]}},{"type":"Feature","properties":{"StationName":"ZZAGURLAKE","NativeID":"338","Elevation":"1189","JulyTmax":"226"},"geometry":{"type":"Point","coordinates":[-119.825,49.57]}},{"type":"Feature","properties":{"StationName":"ZZKALLK.I","NativeID":"341","Elevation":"457","JulyTmax":"274"},"geometry":{"type":"Point","coordinates":[-119.2767,50.2367]}},{"type":"Feature","properties":{"StationName":"HOWARD","NativeID":"343","Elevation":"838","JulyTmax":"232"},"geometry":{"type":"Point","coordinates":[-118.6594,52.3721]}},{"type":"Feature","properties":{"StationName":"SEYMOURARM","NativeID":"344","Elevation":"549","JulyTmax":"274"},"geometry":{"type":"Point","coordinates":[-118.915,51.2733]}},{"type":"Feature","properties":{"StationName":"ZZBIGMOUTH","NativeID":"345","Elevation":"832","JulyTmax":"236"},"geometry":{"type":"Point","coordinates":[-118.3612,51.8288]}},{"type":"Feature","properties":{"StationName":"SALMONARM","NativeID":"346","Elevation":"527","JulyTmax":"264"},"geometry":{"type":"Point","coordinates":[-119.235,50.685]}},{"type":"Feature","properties":{"StationName":"ZZTFL33","NativeID":"350","Elevation":"1250","JulyTmax":"208"},"geometry":{"type":"Point","coordinates":[-118.9633,50.92]}},{"type":"Feature","properties":{"StationName":"CURWENCREEK","NativeID":"352","Elevation":"1250","JulyTmax":"211"},"geometry":{"type":"Point","coordinates":[-118.4233,50.6033]}},{"type":"Feature","properties":{"StationName":"ZZLAMBERTON","NativeID":"353","Elevation":"1097","JulyTmax":"213"},"geometry":{"type":"Point","coordinates":[-119.3983,51.01]}},{"type":"Feature","properties":{"StationName":"ZZGOLDSTREA","NativeID":"355","Elevation":"632","JulyTmax":"259"},"geometry":{"type":"Point","coordinates":[-118.6578,51.7453]}},{"type":"Feature","properties":{"StationName":"ZZKINGFISHE","NativeID":"357","Elevation":"640","JulyTmax":"263"},"geometry":{"type":"Point","coordinates":[-118.7583,50.6983]}},{"type":"Feature","properties":{"StationName":"ZZTRACYCRE","NativeID":"360","Elevation":"1067","JulyTmax":"238"},"geometry":{"type":"Point","coordinates":[-119.44,51.265]}},{"type":"Feature","properties":{"StationName":"TSARCREEK","NativeID":"361","Elevation":"1200","JulyTmax":"227"},"geometry":{"type":"Point","coordinates":[-118.1025,51.9972]}},{"type":"Feature","properties":{"StationName":"MABELLKII","NativeID":"362","Elevation":"488","JulyTmax":"260"},"geometry":{"type":"Point","coordinates":[-118.7733,50.3517]}},{"type":"Feature","properties":{"StationName":"REVELSTOKEF","NativeID":"363","Elevation":"680","JulyTmax":"261"},"geometry":{"type":"Point","coordinates":[-118.2172,51.0603]}},{"type":"Feature","properties":{"StationName":"ZZSOR-NIE","NativeID":"364","Elevation":"761","JulyTmax":"245"},"geometry":{"type":"Point","coordinates":[-118.1855,51.4708]}},{"type":"Feature","properties":{"StationName":"ZZORIGCRAW","NativeID":"365","Elevation":"1000","JulyTmax":"252"},"geometry":{"type":"Point","coordinates":[-117.943,50.7288]}},{"type":"Feature","properties":{"StationName":"WHISKEY","NativeID":"366","Elevation":"1300","JulyTmax":"217"},"geometry":{"type":"Point","coordinates":[-116.785,51.0653]}},{"type":"Feature","properties":{"StationName":"MARION","NativeID":"367","Elevation":"1300","JulyTmax":"223"},"geometry":{"type":"Point","coordinates":[-116.3638,51.0422]}},{"type":"Feature","properties":{"StationName":"ZZDRIFTWOOD","NativeID":"373","Elevation":"938","JulyTmax":"266"},"geometry":{"type":"Point","coordinates":[-116.338,50.8458]}},{"type":"Feature","properties":{"StationName":"SUCCOURCREE","NativeID":"374","Elevation":"1000","JulyTmax":"249"},"geometry":{"type":"Point","coordinates":[-117.5417,51.7162]}},{"type":"Feature","properties":{"StationName":"ZZDONALDCR","NativeID":"375","Elevation":"1300","JulyTmax":"223"},"geometry":{"type":"Point","coordinates":[-117.1638,51.4312]}},{"type":"Feature","properties":{"StationName":"TABERNACLES","NativeID":"376","Elevation":"2438","JulyTmax":"113"},"geometry":{"type":"Point","coordinates":[-117.7613,51.7513]}},{"type":"Feature","properties":{"StationName":"ZZNAKUSPRS","NativeID":"377","Elevation":"651","JulyTmax":"264"},"geometry":{"type":"Point","coordinates":[-117.7763,50.2525]}},{"type":"Feature","properties":{"StationName":"ZZRIONDEL","NativeID":"378","Elevation":"701","JulyTmax":"265"},"geometry":{"type":"Point","coordinates":[-116.851,49.747]}},{"type":"Feature","properties":{"StationName":"GOLDHILL","NativeID":"379","Elevation":"800","JulyTmax":"256"},"geometry":{"type":"Point","coordinates":[-117.0645,50.3658]}},{"type":"Feature","properties":{"StationName":"POWDERCREEK","NativeID":"380","Elevation":"1019","JulyTmax":"238"},"geometry":{"type":"Point","coordinates":[-116.8551,49.9065]}},{"type":"Feature","properties":{"StationName":"FALLSCK","NativeID":"383","Elevation":"790","JulyTmax":"259"},"geometry":{"type":"Point","coordinates":[-117.8799,50.383]}},{"type":"Feature","properties":{"StationName":"HOWSER","NativeID":"384","Elevation":"1300","JulyTmax":"222"},"geometry":{"type":"Point","coordinates":[-117.0017,50.3663]}},{"type":"Feature","properties":{"StationName":"DUNCAN","NativeID":"385","Elevation":"1376","JulyTmax":"217"},"geometry":{"type":"Point","coordinates":[-117.1805,50.7808]}},{"type":"Feature","properties":{"StationName":"TROUTLAKE","NativeID":"387","Elevation":"991","JulyTmax":"232"},"geometry":{"type":"Point","coordinates":[-117.4645,50.6213]}},{"type":"Feature","properties":{"StationName":"KETTLEII","NativeID":"388","Elevation":"1341","JulyTmax":"218"},"geometry":{"type":"Point","coordinates":[-118.625,49.96]}},{"type":"Feature","properties":{"StationName":"BEAVERDELL","NativeID":"390","Elevation":"807","JulyTmax":"269"},"geometry":{"type":"Point","coordinates":[-119.0883,49.457]}},{"type":"Feature","properties":{"StationName":"8MILE","NativeID":"391","Elevation":"1338","JulyTmax":"222"},"geometry":{"type":"Point","coordinates":[-118.5783,49.4328]}},{"type":"Feature","properties":{"StationName":"GRANDFORKS","NativeID":"392","Elevation":"630","JulyTmax":"286"},"geometry":{"type":"Point","coordinates":[-118.4156,49.0307]}},{"type":"Feature","properties":{"StationName":"NICOLL","NativeID":"393","Elevation":"866","JulyTmax":"259"},"geometry":{"type":"Point","coordinates":[-118.3603,49.5267]}},{"type":"Feature","properties":{"StationName":"ROCKCREEK","NativeID":"394","Elevation":"609","JulyTmax":"284"},"geometry":{"type":"Point","coordinates":[-118.9367,49.052]}},{"type":"Feature","properties":{"StationName":"OCTOPUSCREE","NativeID":"396","Elevation":"1432","JulyTmax":"212"},"geometry":{"type":"Point","coordinates":[-118.081,49.699]}},{"type":"Feature","properties":{"StationName":"CRESTON","NativeID":"398","Elevation":"683","JulyTmax":"275"},"geometry":{"type":"Point","coordinates":[-116.4958,49.038]}},{"type":"Feature","properties":{"StationName":"GOATFELL","NativeID":"401","Elevation":"1098","JulyTmax":"250"},"geometry":{"type":"Point","coordinates":[-116.1638,49.1253]}},{"type":"Feature","properties":{"StationName":"PENDOREILLE","NativeID":"402","Elevation":"813","JulyTmax":"282"},"geometry":{"type":"Point","coordinates":[-117.4128,49.053]}},{"type":"Feature","properties":{"StationName":"SMALLWOOD","NativeID":"404","Elevation":"997","JulyTmax":"250"},"geometry":{"type":"Point","coordinates":[-117.4475,49.4967]}},{"type":"Feature","properties":{"StationName":"SLOCAN","NativeID":"406","Elevation":"1230","JulyTmax":"234"},"geometry":{"type":"Point","coordinates":[-117.44,49.7847]}},{"type":"Feature","properties":{"StationName":"NANCYGREEN","NativeID":"407","Elevation":"1397","JulyTmax":"220"},"geometry":{"type":"Point","coordinates":[-117.9942,49.2545]}},{"type":"Feature","properties":{"StationName":"NORNS(WIND)","NativeID":"408","Elevation":"2423","JulyTmax":"60"},"geometry":{"type":"Point","coordinates":[-117.787,49.5025]}},{"type":"Feature","properties":{"StationName":"ZZBLUELAKE","NativeID":"410","Elevation":"1301","JulyTmax":"250"},"geometry":{"type":"Point","coordinates":[-116.0217,50.1722]}},{"type":"Feature","properties":{"StationName":"PALLISER","NativeID":"411","Elevation":"1100","JulyTmax":"251"},"geometry":{"type":"Point","coordinates":[-115.658,50.49]}},{"type":"Feature","properties":{"StationName":"ELKO","NativeID":"412","Elevation":"775","JulyTmax":"271"},"geometry":{"type":"Point","coordinates":[-115.2433,49.2833]}},{"type":"Feature","properties":{"StationName":"ZZKIKOMUNP","NativeID":"416","Elevation":"794","JulyTmax":"284"},"geometry":{"type":"Point","coordinates":[-115.235506,49.240592]}},{"type":"Feature","properties":{"StationName":"TOBY","NativeID":"417","Elevation":"894","JulyTmax":"259"},"geometry":{"type":"Point","coordinates":[-116.0553,50.5128]}},{"type":"Feature","properties":{"StationName":"FLATHEAD2","NativeID":"418","Elevation":"1311","JulyTmax":"235"},"geometry":{"type":"Point","coordinates":[-114.5372,49.0708]}},{"type":"Feature","properties":{"StationName":"JOHNSONLAKE","NativeID":"419","Elevation":"853","JulyTmax":"272"},"geometry":{"type":"Point","coordinates":[-115.7367,49.922]}},{"type":"Feature","properties":{"StationName":"DEWARCREEK","NativeID":"421","Elevation":"1608","JulyTmax":"222"},"geometry":{"type":"Point","coordinates":[-116.383,49.7845]}},{"type":"Feature","properties":{"StationName":"ZZBULL","NativeID":"422","Elevation":"1326","JulyTmax":"227"},"geometry":{"type":"Point","coordinates":[-115.1388,49.9025]}},{"type":"Feature","properties":{"StationName":"BAKERHUB(W","NativeID":"423","Elevation":"2262","JulyTmax":"125"},"geometry":{"type":"Point","coordinates":[-115.6263,49.4562]}},{"type":"Feature","properties":{"StationName":"EMILYCREEK","NativeID":"425","Elevation":"1190","JulyTmax":"244"},"geometry":{"type":"Point","coordinates":[-115.9772,50.1451]}},{"type":"Feature","properties":{"StationName":"CRANBROOKFS","NativeID":"426","Elevation":"996","JulyTmax":"259"},"geometry":{"type":"Point","coordinates":[-115.848,49.6673]}},{"type":"Feature","properties":{"StationName":"NASSCAMP","NativeID":"427","Elevation":"191","JulyTmax":"222"},"geometry":{"type":"Point","coordinates":[-128.9933,55.2883]}},{"type":"Feature","properties":{"StationName":"KISPIOX","NativeID":"428","Elevation":"335","JulyTmax":"230"},"geometry":{"type":"Point","coordinates":[-127.6467,55.435]}},{"type":"Feature","properties":{"StationName":"CEDARVALE","NativeID":"429","Elevation":"274","JulyTmax":"237"},"geometry":{"type":"Point","coordinates":[-128.3133,55.0267]}},{"type":"Feature","properties":{"StationName":"VANDYKE","NativeID":"430","Elevation":"305","JulyTmax":"224"},"geometry":{"type":"Point","coordinates":[-129.0967,56.0167]}},{"type":"Feature","properties":{"StationName":"UPPERKISPIO","NativeID":"431","Elevation":"410","JulyTmax":"220"},"geometry":{"type":"Point","coordinates":[-128.0417,55.6]}},{"type":"Feature","properties":{"StationName":"BELL-IRVING","NativeID":"432","Elevation":"450","JulyTmax":"224"},"geometry":{"type":"Point","coordinates":[-129.2933,56.3483]}},{"type":"Feature","properties":{"StationName":"CRANBERRY","NativeID":"433","Elevation":"500","JulyTmax":"207"},"geometry":{"type":"Point","coordinates":[-128.705,55.5767]}},{"type":"Feature","properties":{"StationName":"NOEL","NativeID":"437","Elevation":"988","JulyTmax":"201"},"geometry":{"type":"Point","coordinates":[-120.4861,55.2958]}},{"type":"Feature","properties":{"StationName":"ELKMOUNTAIN","NativeID":"438","Elevation":"437","JulyTmax":"232"},"geometry":{"type":"Point","coordinates":[-125.5114,59.3337]}},{"type":"Feature","properties":{"StationName":"FIRESIDE","NativeID":"440","Elevation":"731","JulyTmax":"212"},"geometry":{"type":"Point","coordinates":[-127.3349,59.7227]}},{"type":"Feature","properties":{"StationName":"KETCHIKA","NativeID":"444","Elevation":"687","JulyTmax":"218"},"geometry":{"type":"Point","coordinates":[-127.125,58.727]}},{"type":"Feature","properties":{"StationName":"BOYALAKE","NativeID":"445","Elevation":"730","JulyTmax":"215"},"geometry":{"type":"Point","coordinates":[-129.11,59.3683]}},{"type":"Feature","properties":{"StationName":"ZZGABRIOLA","NativeID":"547","Elevation":"25","JulyTmax":"224"},"geometry":{"type":"Point","coordinates":[-123.8333,49.1867]}},{"type":"Feature","properties":{"StationName":"FORTNELSON","NativeID":"599","Elevation":"382","JulyTmax":"234"},"geometry":{"type":"Point","coordinates":[-122.575,58.8376]}},{"type":"Feature","properties":{"StationName":"HOLYCROSS2","NativeID":"654","Elevation":"961","JulyTmax":"205"},"geometry":{"type":"Point","coordinates":[-124.7764,53.9358]}},{"type":"Feature","properties":{"StationName":"ROUNDPRAIRI","NativeID":"788","Elevation":"1647","JulyTmax":"207"},"geometry":{"type":"Point","coordinates":[-114.8997,50.0867]}},{"type":"Feature","properties":{"StationName":"NEGROCK","NativeID":"789","Elevation":"1572","JulyTmax":"213"},"geometry":{"type":"Point","coordinates":[-115.9872,49.4539]}},{"type":"Feature","properties":{"StationName":"WHITERIVER","NativeID":"790","Elevation":"1357","JulyTmax":"238"},"geometry":{"type":"Point","coordinates":[-115.266,50.185]}},{"type":"Feature","properties":{"StationName":"CHERRYLAKE","NativeID":"791","Elevation":"1372","JulyTmax":"233"},"geometry":{"type":"Point","coordinates":[-115.542,49.188]}},{"type":"Feature","properties":{"StationName":"CARIBOOCK","NativeID":"793","Elevation":"1518","JulyTmax":"204"},"geometry":{"type":"Point","coordinates":[-117.2303,51.1767]}},{"type":"Feature","properties":{"StationName":"CHURNCREEK","NativeID":"832","Elevation":"1100","JulyTmax":"226"},"geometry":{"type":"Point","coordinates":[-122.3202,51.4027]}},{"type":"Feature","properties":{"StationName":"AUGUSTLAKE","NativeID":"836","Elevation":"855","JulyTmax":"264"},"geometry":{"type":"Point","coordinates":[-120.4571,49.4335]}},{"type":"Feature","properties":{"StationName":"AKOKLICREEK","NativeID":"838","Elevation":"821","JulyTmax":"258"},"geometry":{"type":"Point","coordinates":[-116.7464,49.4358]}},{"type":"Feature","properties":{"StationName":"BRISCO","NativeID":"865","Elevation":"930","JulyTmax":"246"},"geometry":{"type":"Point","coordinates":[-116.2449,50.8193]}},{"type":"Feature","properties":{"StationName":"BLAEBERRY","NativeID":"866","Elevation":"861","JulyTmax":"252"},"geometry":{"type":"Point","coordinates":[-117.0571,51.4357]}},{"type":"Feature","properties":{"StationName":"BIG-MOUTH2","NativeID":"868","Elevation":"1091","JulyTmax":"222"},"geometry":{"type":"Point","coordinates":[-118.5914,51.8533]}},{"type":"Feature","properties":{"StationName":"CRAWFORD","NativeID":"873","Elevation":"887","JulyTmax":"245"},"geometry":{"type":"Point","coordinates":[-117.9578,50.765]}},{"type":"Feature","properties":{"StationName":"IDABELLIII","NativeID":"876","Elevation":"1300","JulyTmax":"230"},"geometry":{"type":"Point","coordinates":[-119.1242,49.7672]}},{"type":"Feature","properties":{"StationName":"SICAMOUS","NativeID":"882","Elevation":"1050","JulyTmax":"216"},"geometry":{"type":"Point","coordinates":[-119.0017,50.8636]}},{"type":"Feature","properties":{"StationName":"GOATHAVEN","NativeID":"886","Elevation":"1051","JulyTmax":"250"},"geometry":{"type":"Point","coordinates":[-115.2144,49.6673]}},{"type":"Feature","properties":{"StationName":"CARROTTLAKE","NativeID":"903","Elevation":"1000","JulyTmax":"198"},"geometry":{"type":"Point","coordinates":[-124.4403,53.4]}},{"type":"Feature","properties":{"StationName":"HAGENSBORGI","NativeID":"904","Elevation":"50","JulyTmax":"228"},"geometry":{"type":"Point","coordinates":[-126.5897,52.3872]}},{"type":"Feature","properties":{"StationName":"GOLDSTREAMI","NativeID":"919","Elevation":"1333","JulyTmax":"195"},"geometry":{"type":"Point","coordinates":[-118.4871,51.6694]}},{"type":"Feature","properties":{"StationName":"MESACHIE2","NativeID":"934","Elevation":"210","JulyTmax":"252"},"geometry":{"type":"Point","coordinates":[-124.1361,48.8181]}},{"type":"Feature","properties":{"StationName":"Akienrthe","NativeID":"AKI","Elevation":"760","JulyTmax":"199"},"geometry":{"type":"Point","coordinates":[-124.895556,57.188333]}},{"type":"Feature","properties":{"StationName":"AikenLake","NativeID":"AKN","Elevation":"970","JulyTmax":"197"},"geometry":{"type":"Point","coordinates":[-125.741667,56.436667]}},{"type":"Feature","properties":{"StationName":"AlouetteLak","NativeID":"ALU","Elevation":"125","JulyTmax":"222"},"geometry":{"type":"Point","coordinates":[-122.486214,49.287442]}},{"type":"Feature","properties":{"StationName":"ElsieLkfor","NativeID":"ASH","Elevation":"340","JulyTmax":"236"},"geometry":{"type":"Point","coordinates":[-125.143833,49.440556]}},{"type":"Feature","properties":{"StationName":"BarnesCk","NativeID":"BAR","Elevation":"1620","JulyTmax":"204"},"geometry":{"type":"Point","coordinates":[-118.349217,50.066017]}},{"type":"Feature","properties":{"StationName":"BearCkRes.","NativeID":"BCK","Elevation":"419","JulyTmax":"210"},"geometry":{"type":"Point","coordinates":[-123.913889,48.503333]}},{"type":"Feature","properties":{"StationName":"ColumbiaR.","NativeID":"BIR","Elevation":"410","JulyTmax":"287"},"geometry":{"type":"Point","coordinates":[-117.716389,49.177778]}},{"type":"Feature","properties":{"StationName":"BralorneUpp","NativeID":"BLN","Elevation":"1920","JulyTmax":"142"},"geometry":{"type":"Point","coordinates":[-122.74525,50.799278]}},{"type":"Feature","properties":{"StationName":"BrendaMines","NativeID":"BMN","Elevation":"1460","JulyTmax":"213"},"geometry":{"type":"Point","coordinates":[-119.988889,49.868056]}},{"type":"Feature","properties":{"StationName":"BridgeR.bl","NativeID":"BRI","Elevation":"1350","JulyTmax":"175"},"geometry":{"type":"Point","coordinates":[-123.450278,50.856111]}},{"type":"Feature","properties":{"StationName":"BullR.@Wa","NativeID":"BUL","Elevation":"800","JulyTmax":"262"},"geometry":{"type":"Point","coordinates":[-115.363889,49.493056]}},{"type":"Feature","properties":{"StationName":"BeaverR.nr","NativeID":"BVR","Elevation":"780","JulyTmax":"245"},"geometry":{"type":"Point","coordinates":[-117.461667,51.509722]}},{"type":"Feature","properties":{"StationName":"CheakamusR.","NativeID":"CHK","Elevation":"640","JulyTmax":"222"},"geometry":{"type":"Point","coordinates":[-123.033889,50.079722]}},{"type":"Feature","properties":{"StationName":"ChowadeUppe","NativeID":"CHW","Elevation":"1480","JulyTmax":"175"},"geometry":{"type":"Point","coordinates":[-122.778867,56.636833]}},{"type":"Feature","properties":{"StationName":"ClowhomFall","NativeID":"CLO","Elevation":"10","JulyTmax":"237"},"geometry":{"type":"Point","coordinates":[-123.522222,49.708333]}},{"type":"Feature","properties":{"StationName":"ClowhomR.n","NativeID":"CLW","Elevation":"125","JulyTmax":"234"},"geometry":{"type":"Point","coordinates":[-123.420278,49.787778]}},{"type":"Feature","properties":{"StationName":"DaisyLakeD","NativeID":"CMS","Elevation":"390","JulyTmax":"231"},"geometry":{"type":"Point","coordinates":[-123.134722,49.975]}},{"type":"Feature","properties":{"StationName":"UpperCheaka","NativeID":"CMU","Elevation":"880","JulyTmax":"203"},"geometry":{"type":"Point","coordinates":[-123.133333,50.122222]}},{"type":"Feature","properties":{"StationName":"ComoxDamfo","NativeID":"CMX","Elevation":"135","JulyTmax":"231"},"geometry":{"type":"Point","coordinates":[-125.094444,49.643056]}},{"type":"Feature","properties":{"StationName":"CoquitlamLa","NativeID":"COQ","Elevation":"160","JulyTmax":"235"},"geometry":{"type":"Point","coordinates":[-122.779625,49.355586]}},{"type":"Feature","properties":{"StationName":"ComoxLake@","NativeID":"COX","Elevation":"140","JulyTmax":"225"},"geometry":{"type":"Point","coordinates":[-125.08,49.64]}},{"type":"Feature","properties":{"StationName":"CoquitlamR.","NativeID":"CQM","Elevation":"290","JulyTmax":"227"},"geometry":{"type":"Point","coordinates":[-122.792486,49.488294]}},{"type":"Feature","properties":{"StationName":"Cruickshank","NativeID":"CRU","Elevation":"150","JulyTmax":"226"},"geometry":{"type":"Point","coordinates":[-125.200833,49.579167]}},{"type":"Feature","properties":{"StationName":"CoursierLak","NativeID":"CSC","Elevation":"1265","JulyTmax":"205"},"geometry":{"type":"Point","coordinates":[-118.100556,50.721389]}},{"type":"Feature","properties":{"StationName":"DuncanR.bl","NativeID":"DBC","Elevation":"590","JulyTmax":"241"},"geometry":{"type":"Point","coordinates":[-117.048936,50.638383]}},{"type":"Feature","properties":{"StationName":"DuncanRes.","NativeID":"DCN","Elevation":"580","JulyTmax":"238"},"geometry":{"type":"Point","coordinates":[-116.948333,50.255]}},{"type":"Feature","properties":{"StationName":"EastCk-sn","NativeID":"EAC","Elevation":"2030","JulyTmax":"147"},"geometry":{"type":"Point","coordinates":[-116.929733,50.6396]}},{"type":"Feature","properties":{"StationName":"ElkR.abCa","NativeID":"ELK","Elevation":"270","JulyTmax":"239"},"geometry":{"type":"Point","coordinates":[-125.812897,49.857128]}},{"type":"Feature","properties":{"StationName":"ElkR.@Fer","NativeID":"ELR","Elevation":"1000","JulyTmax":"242"},"geometry":{"type":"Point","coordinates":[-115.07,49.51]}},{"type":"Feature","properties":{"StationName":"EricCk","NativeID":"ERC","Elevation":"280","JulyTmax":"252"},"geometry":{"type":"Point","coordinates":[-125.288167,49.605361]}},{"type":"Feature","properties":{"StationName":"FideltyMtn.","NativeID":"FDL","Elevation":"1800","JulyTmax":"160"},"geometry":{"type":"Point","coordinates":[-117.700617,51.237417]}},{"type":"Feature","properties":{"StationName":"FinlayR.ab","NativeID":"FIN","Elevation":"711","JulyTmax":"203"},"geometry":{"type":"Point","coordinates":[-125.249167,57.125]}},{"type":"Feature","properties":{"StationName":"FloeLk","NativeID":"FLK","Elevation":"2090","JulyTmax":"156"},"geometry":{"type":"Point","coordinates":[-116.137117,51.059917]}},{"type":"Feature","properties":{"StationName":"KootenayR.","NativeID":"FST","Elevation":"770","JulyTmax":"266"},"geometry":{"type":"Point","coordinates":[-115.634611,49.611228]}},{"type":"Feature","properties":{"StationName":"GoldR.nrU","NativeID":"GLD","Elevation":"10","JulyTmax":"227"},"geometry":{"type":"Point","coordinates":[-126.106111,49.705833]}},{"type":"Feature","properties":{"StationName":"GoldCk","NativeID":"GOC","Elevation":"794","JulyTmax":"189"},"geometry":{"type":"Point","coordinates":[-122.477361,49.446556]}},{"type":"Feature","properties":{"StationName":"GoldstreamR","NativeID":"GOL","Elevation":"600","JulyTmax":"262"},"geometry":{"type":"Point","coordinates":[-118.596994,51.668431]}},{"type":"Feature","properties":{"StationName":"GreenMtn.","NativeID":"GRN","Elevation":"1780","JulyTmax":"172"},"geometry":{"type":"Point","coordinates":[-122.924611,50.795583]}},{"type":"Feature","properties":{"StationName":"GlaciernrR","NativeID":"GRP","Elevation":"1182","JulyTmax":"216"},"geometry":{"type":"Point","coordinates":[-117.508611,51.269722]}},{"type":"Feature","properties":{"StationName":"KinbasketLa","NativeID":"GRT","Elevation":"770","JulyTmax":"223"},"geometry":{"type":"Point","coordinates":[-117.878306,51.877056]}},{"type":"Feature","properties":{"StationName":"HeberR.nr","NativeID":"HEB","Elevation":"215","JulyTmax":"239"},"geometry":{"type":"Point","coordinates":[-125.986389,49.815278]}},{"type":"Feature","properties":{"StationName":"HalfwayR.@","NativeID":"HFF","Elevation":"480","JulyTmax":"235"},"geometry":{"type":"Point","coordinates":[-121.629444,56.25085]}},{"type":"Feature","properties":{"StationName":"HornCk","NativeID":"HRN","Elevation":"1450","JulyTmax":"175"},"geometry":{"type":"Point","coordinates":[-123.606,56.734767]}},{"type":"Feature","properties":{"StationName":"HurleyR.ab","NativeID":"HUR","Elevation":"990","JulyTmax":"217"},"geometry":{"type":"Point","coordinates":[-122.942156,50.730489]}},{"type":"Feature","properties":{"StationName":"Illecilliwae","NativeID":"ILL","Elevation":"500","JulyTmax":"251"},"geometry":{"type":"Point","coordinates":[-118.082733,51.013331]}},{"type":"Feature","properties":{"StationName":"IngenikaR.","NativeID":"ING","Elevation":"711","JulyTmax":"207"},"geometry":{"type":"Point","coordinates":[-125.103056,56.730556]}},{"type":"Feature","properties":{"StationName":"JohnHartsu","NativeID":"JHT","Elevation":"15","JulyTmax":"232"},"geometry":{"type":"Point","coordinates":[-125.308611,50.043333]}},{"type":"Feature","properties":{"StationName":"KwadachaNor","NativeID":"KWA","Elevation":"1554","JulyTmax":"161"},"geometry":{"type":"Point","coordinates":[-125.073167,57.623333]}},{"type":"Feature","properties":{"StationName":"LaJoieUpper","NativeID":"LJU","Elevation":"1829","JulyTmax":"156"},"geometry":{"type":"Point","coordinates":[-123.1835,50.859333]}},{"type":"Feature","properties":{"StationName":"Williston@","NativeID":"LST","Elevation":"712","JulyTmax":"205"},"geometry":{"type":"Point","coordinates":[-123.746717,56.050633]}},{"type":"Feature","properties":{"StationName":"McQueTerrac","NativeID":"MCQ","Elevation":"1200","JulyTmax":"199"},"geometry":{"type":"Point","coordinates":[-123.404167,56.9815]}},{"type":"Feature","properties":{"StationName":"MissionRidg","NativeID":"MIS","Elevation":"1850","JulyTmax":"172"},"geometry":{"type":"Point","coordinates":[-122.207694,50.762556]}},{"type":"Feature","properties":{"StationName":"MoberlyR.@","NativeID":"MOB","Elevation":"600","JulyTmax":"228"},"geometry":{"type":"Point","coordinates":[-121.346944,56.093056]}},{"type":"Feature","properties":{"StationName":"MolsonCk","NativeID":"MOL","Elevation":"1935","JulyTmax":"154"},"geometry":{"type":"Point","coordinates":[-118.22575,52.22165]}},{"type":"Feature","properties":{"StationName":"MorrisseyRi","NativeID":"MOR","Elevation":"1860","JulyTmax":"181"},"geometry":{"type":"Point","coordinates":[-114.975,49.447222]}},{"type":"Feature","properties":{"StationName":"Mt.Revelsto","NativeID":"MTR","Elevation":"1850","JulyTmax":"159"},"geometry":{"type":"Point","coordinates":[-118.150278,51.039167]}},{"type":"Feature","properties":{"StationName":"NationR.nr","NativeID":"NAT","Elevation":"725","JulyTmax":"211"},"geometry":{"type":"Point","coordinates":[-123.61,55.43]}},{"type":"Feature","properties":{"StationName":"NorthTyaugh","NativeID":"NTY","Elevation":"1969","JulyTmax":"151"},"geometry":{"type":"Point","coordinates":[-122.793917,51.147528]}},{"type":"Feature","properties":{"StationName":"OminicaR.a","NativeID":"OMI","Elevation":"715","JulyTmax":"201"},"geometry":{"type":"Point","coordinates":[-124.56,55.94]}},{"type":"Feature","properties":{"StationName":"OsilinkaR.","NativeID":"OSL","Elevation":"775","JulyTmax":"206"},"geometry":{"type":"Point","coordinates":[-124.801389,56.126667]}},{"type":"Feature","properties":{"StationName":"OspikaR.ab","NativeID":"OSP","Elevation":"750","JulyTmax":"208"},"geometry":{"type":"Point","coordinates":[-123.93,56.46]}},{"type":"Feature","properties":{"StationName":"PackR.@ou","NativeID":"PAK","Elevation":"675","JulyTmax":"206"},"geometry":{"type":"Point","coordinates":[-123.036608,54.997844]}},{"type":"Feature","properties":{"StationName":"ParsnipUppe","NativeID":"PAR","Elevation":"790","JulyTmax":"218"},"geometry":{"type":"Point","coordinates":[-122.145833,54.6125]}},{"type":"Feature","properties":{"StationName":"ParkMountai","NativeID":"PKM","Elevation":"1890","JulyTmax":"162"},"geometry":{"type":"Point","coordinates":[-118.619722,50.447222]}},{"type":"Feature","properties":{"StationName":"GMSHudson's","NativeID":"PMD","Elevation":"720","JulyTmax":"215"},"geometry":{"type":"Point","coordinates":[-122.1835,56.0125]}},{"type":"Feature","properties":{"StationName":"ParsnipR.a","NativeID":"PRS","Elevation":"700","JulyTmax":"207"},"geometry":{"type":"Point","coordinates":[-122.9,55.08]}},{"type":"Feature","properties":{"StationName":"PulpitLk","NativeID":"PUL","Elevation":"1311","JulyTmax":"176"},"geometry":{"type":"Point","coordinates":[-126.748783,57.548283]}},{"type":"Feature","properties":{"StationName":"PinePass","NativeID":"PYN","Elevation":"1400","JulyTmax":"162"},"geometry":{"type":"Point","coordinates":[-122.637333,55.353]}},{"type":"Feature","properties":{"StationName":"Queen'sBay","NativeID":"QBY","Elevation":"545","JulyTmax":"247"},"geometry":{"type":"Point","coordinates":[-116.929722,49.654444]}},{"type":"Feature","properties":{"StationName":"QuinsamR.@","NativeID":"QIN","Elevation":"280","JulyTmax":"228"},"geometry":{"type":"Point","coordinates":[-125.5,49.93]}},{"type":"Feature","properties":{"StationName":"QuinsamR.n","NativeID":"QSM","Elevation":"15","JulyTmax":"239"},"geometry":{"type":"Point","coordinates":[-125.300386,50.029272]}},{"type":"Feature","properties":{"StationName":"SalmonR.ab","NativeID":"SAM","Elevation":"215","JulyTmax":"232"},"geometry":{"type":"Point","coordinates":[-125.672222,50.091667]}},{"type":"Feature","properties":{"StationName":"StrathconaD","NativeID":"SCA","Elevation":"227","JulyTmax":"229"},"geometry":{"type":"Point","coordinates":[-125.583889,49.996944]}},{"type":"Feature","properties":{"StationName":"SugarLakeR","NativeID":"SGL","Elevation":"675","JulyTmax":"253"},"geometry":{"type":"Point","coordinates":[-118.53,50.35]}},{"type":"Feature","properties":{"StationName":"St.LeonCk","NativeID":"SLK","Elevation":"1800","JulyTmax":"169"},"geometry":{"type":"Point","coordinates":[-117.7012,50.434167]}},{"type":"Feature","properties":{"StationName":"Shalalth","NativeID":"SON","Elevation":"290","JulyTmax":"284"},"geometry":{"type":"Point","coordinates":[-122.242383,50.728081]}},{"type":"Feature","properties":{"StationName":"StaveR.ab","NativeID":"STA","Elevation":"330","JulyTmax":"226"},"geometry":{"type":"Point","coordinates":[-122.321944,49.556111]}},{"type":"Feature","properties":{"StationName":"StaveR.Upp","NativeID":"STV","Elevation":"930","JulyTmax":"208"},"geometry":{"type":"Point","coordinates":[-122.402056,49.623667]}},{"type":"Feature","properties":{"StationName":"Chilliwack","NativeID":"T12","Elevation":"11","JulyTmax":"239"},"geometry":{"type":"Point","coordinates":[-121.940556,49.156111]}},{"type":"Feature","properties":{"StationName":"NorthDelta","NativeID":"T13","Elevation":"111","JulyTmax":"229"},"geometry":{"type":"Point","coordinates":[-122.901667,49.158333]}},{"type":"Feature","properties":{"StationName":"SurreyEast","NativeID":"T15","Elevation":"79","JulyTmax":"219"},"geometry":{"type":"Point","coordinates":[-122.693333,49.132778]}},{"type":"Feature","properties":{"StationName":"RichmondSou","NativeID":"T17","Elevation":"5","JulyTmax":"220"},"geometry":{"type":"Point","coordinates":[-123.108056,49.141667]}},{"type":"Feature","properties":{"StationName":"BurnabySout","NativeID":"T18","Elevation":"145","JulyTmax":"218"},"geometry":{"type":"Point","coordinates":[-122.9825,49.215556]}},{"type":"Feature","properties":{"StationName":"PittMeadows","NativeID":"T20","Elevation":"20","JulyTmax":"231"},"geometry":{"type":"Point","coordinates":[-122.709167,49.245278]}},{"type":"Feature","properties":{"StationName":"LangleyCent","NativeID":"T27","Elevation":"82","JulyTmax":"223"},"geometry":{"type":"Point","coordinates":[-122.566389,49.096111]}},{"type":"Feature","properties":{"StationName":"HopeAirport","NativeID":"T29","Elevation":"131","JulyTmax":"239"},"geometry":{"type":"Point","coordinates":[-121.499444,49.369722]}},{"type":"Feature","properties":{"StationName":"MapleRidge","NativeID":"T30","Elevation":"100","JulyTmax":"234"},"geometry":{"type":"Point","coordinates":[-122.581944,49.214722]}},{"type":"Feature","properties":{"StationName":"VancouverAi","NativeID":"T31","Elevation":"5","JulyTmax":"206"},"geometry":{"type":"Point","coordinates":[-123.1525,49.186389]}},{"type":"Feature","properties":{"StationName":"AbbotsfordA","NativeID":"T34","Elevation":"58","JulyTmax":"226"},"geometry":{"type":"Point","coordinates":[-122.343889,49.023611]}},{"type":"Feature","properties":{"StationName":"AshcroftRan","NativeID":"T36","Elevation":"305","JulyTmax":"265"},"geometry":{"type":"Point","coordinates":[-121.333333,50.716667]}},{"type":"Feature","properties":{"StationName":"Wahleach(Jo","NativeID":"WAH","Elevation":"641","JulyTmax":"191"},"geometry":{"type":"Point","coordinates":[-121.618611,49.231944]}},{"type":"Feature","properties":{"StationName":"WolfR.Uppe","NativeID":"WOL","Elevation":"1490","JulyTmax":"173"},"geometry":{"type":"Point","coordinates":[-125.741667,49.680556]}},{"type":"Feature","properties":{"StationName":"Williston@","NativeID":"WSC","Elevation":"676","JulyTmax":"209"},"geometry":{"type":"Point","coordinates":[-122.715833,56.106111]}},{"type":"Feature","properties":{"StationName":"GUSTAVUS","NativeID":"PAGS","Elevation":"9","JulyTmax":"168"},"geometry":{"type":"Point","coordinates":[-135.73,58.42]}},{"type":"Feature","properties":{"StationName":"SKAGWAY","NativeID":"PAGY","Elevation":"5","JulyTmax":"178"},"geometry":{"type":"Point","coordinates":[-135.3,59.47]}},{"type":"Feature","properties":{"StationName":"JUNEAUINTL","NativeID":"PAJN","Elevation":"5","JulyTmax":"175"},"geometry":{"type":"Point","coordinates":[-134.5625,58.3561]}},{"type":"Feature","properties":{"StationName":"KETCHIKANIN","NativeID":"PAKT","Elevation":"26","JulyTmax":"174"},"geometry":{"type":"Point","coordinates":[-131.7225,55.3531]}},{"type":"Feature","properties":{"StationName":"KLAWOCK","NativeID":"PAKW","Elevation":"15","JulyTmax":"174"},"geometry":{"type":"Point","coordinates":[-133.08,55.58]}},{"type":"Feature","properties":{"StationName":"ANNETTEISLA","NativeID":"PANT","Elevation":"34","JulyTmax":"175"},"geometry":{"type":"Point","coordinates":[-131.57,55.03]}},{"type":"Feature","properties":{"StationName":"HOONAHSEAPL","NativeID":"PAOH","Elevation":"0","JulyTmax":"175"},"geometry":{"type":"Point","coordinates":[-135.45,58.12]}},{"type":"Feature","properties":{"StationName":"NORTHWAY","NativeID":"PAOR","Elevation":"523","JulyTmax":"207"},"geometry":{"type":"Point","coordinates":[-141.9364,62.9628]}},{"type":"Feature","properties":{"StationName":"PETERSBURG","NativeID":"PAPG","Elevation":"34","JulyTmax":"167"},"geometry":{"type":"Point","coordinates":[-132.9453,56.8017]}},{"type":"Feature","properties":{"StationName":"SITKA/JAPONS","NativeID":"PASI","Elevation":"6","JulyTmax":"155"},"geometry":{"type":"Point","coordinates":[-135.3647,57.0481]}},{"type":"Feature","properties":{"StationName":"WRANGELL","NativeID":"PAWG","Elevation":"13","JulyTmax":"173"},"geometry":{"type":"Point","coordinates":[-132.37,56.48]}},{"type":"Feature","properties":{"StationName":"YAKUTAT","NativeID":"PAYA","Elevation":"9","JulyTmax":"153"},"geometry":{"type":"Point","coordinates":[-139.67,59.52]}},{"type":"Feature","properties":{"StationName":"Belgo","NativeID":"SBC8","Elevation":"475","JulyTmax":"285"},"geometry":{"type":"Point","coordinates":[-119.373225,49.879864]}},{"type":"Feature","properties":{"StationName":"Ellison","NativeID":"SBC9","Elevation":"473","JulyTmax":"287"},"geometry":{"type":"Point","coordinates":[-119.354164,49.943325]}},{"type":"Feature","properties":{"StationName":"SumasPrairi","NativeID":"bc65","Elevation":"100","JulyTmax":"238"},"geometry":{"type":"Point","coordinates":[-122.145833,49.0725]}},{"type":"Feature","properties":{"StationName":"SilverCreek","NativeID":"sa89","Elevation":"374","JulyTmax":"231"},"geometry":{"type":"Point","coordinates":[-119.385515,50.632354]}},{"type":"Feature","properties":{"StationName":"Westwold","NativeID":"we89","Elevation":"653","JulyTmax":"234"},"geometry":{"type":"Point","coordinates":[-119.764472,50.467435]}},{"type":"Feature","properties":{"StationName":"Brandywine","NativeID":"11091","Elevation":"496","JulyTmax":"254"},"geometry":{"type":"Point","coordinates":[-123.11806,50.05417]}},{"type":"Feature","properties":{"StationName":"Mt.Strachan","NativeID":"11121","Elevation":"1220","JulyTmax":"171"},"geometry":{"type":"Point","coordinates":[-123.19144,49.40431]}},{"type":"Feature","properties":{"StationName":"Mt.Strachan","NativeID":"11122","Elevation":"1420","JulyTmax":"159"},"geometry":{"type":"Point","coordinates":[-123.19636,49.41003]}},{"type":"Feature","properties":{"StationName":"DeeksPeak","NativeID":"11125","Elevation":"1280","JulyTmax":"183"},"geometry":{"type":"Point","coordinates":[-123.21833,49.53414]}},{"type":"Feature","properties":{"StationName":"NicolumCree","NativeID":"15093","Elevation":"244","JulyTmax":"269"},"geometry":{"type":"Point","coordinates":[-121.35611,49.36306]}},{"type":"Feature","properties":{"StationName":"HellsGateR","NativeID":"15123","Elevation":"1005","JulyTmax":"229"},"geometry":{"type":"Point","coordinates":[-121.42852,49.79229]}},{"type":"Feature","properties":{"StationName":"Jackass","NativeID":"15124","Elevation":"350","JulyTmax":"302"},"geometry":{"type":"Point","coordinates":[-121.5475,50.07611]}},{"type":"Feature","properties":{"StationName":"FoundationM","NativeID":"15321","Elevation":"1650","JulyTmax":"188"},"geometry":{"type":"Point","coordinates":[-121.08417,49.23]}},{"type":"Feature","properties":{"StationName":"AllisonPass","NativeID":"15322","Elevation":"1340","JulyTmax":"221"},"geometry":{"type":"Point","coordinates":[-120.87,49.11528]}},{"type":"Feature","properties":{"StationName":"AllisonPass","NativeID":"15392","Elevation":"1340","JulyTmax":"216"},"geometry":{"type":"Point","coordinates":[-120.86744,49.11564]}},{"type":"Feature","properties":{"StationName":"Yellowhead","NativeID":"1A01P","Elevation":"1860","JulyTmax":"175"},"geometry":{"type":"Point","coordinates":[-118.55,52.9]}},{"type":"Feature","properties":{"StationName":"Barkerville","NativeID":"1A03P","Elevation":"1520","JulyTmax":"176"},"geometry":{"type":"Point","coordinates":[-121.483,53.05]}},{"type":"Feature","properties":{"StationName":"HedrickLake","NativeID":"1A14P","Elevation":"1100","JulyTmax":"181"},"geometry":{"type":"Point","coordinates":[-121,54.1]}},{"type":"Feature","properties":{"StationName":"RevolutionC","NativeID":"1A17P","Elevation":"1690","JulyTmax":"150"},"geometry":{"type":"Point","coordinates":[-120.367,53.783]}},{"type":"Feature","properties":{"StationName":"MountWells","NativeID":"1B01P","Elevation":"1490","JulyTmax":"173"},"geometry":{"type":"Point","coordinates":[-126.417,53.733]}},{"type":"Feature","properties":{"StationName":"TahtsaLake","NativeID":"1B02P","Elevation":"1300","JulyTmax":"144"},"geometry":{"type":"Point","coordinates":[-127.633333,53.5667]}},{"type":"Feature","properties":{"StationName":"Mt.Pondosy","NativeID":"1B08P","Elevation":"1400","JulyTmax":"179"},"geometry":{"type":"Point","coordinates":[-126.867,53.167]}},{"type":"Feature","properties":{"StationName":"GreenMounta","NativeID":"1C12P","Elevation":"1780","JulyTmax":"168"},"geometry":{"type":"Point","coordinates":[-122.917,50.8]}},{"type":"Feature","properties":{"StationName":"MissionRidg","NativeID":"1C18P","Elevation":"1850","JulyTmax":"171"},"geometry":{"type":"Point","coordinates":[-122.2,50.767]}},{"type":"Feature","properties":{"StationName":"BossMountai","NativeID":"1C20P","Elevation":"1460","JulyTmax":"205"},"geometry":{"type":"Point","coordinates":[-120.867,52.117]}},{"type":"Feature","properties":{"StationName":"YanksPeakE","NativeID":"1C41P","Elevation":"1670","JulyTmax":"167"},"geometry":{"type":"Point","coordinates":[-120.35,52.833]}},{"type":"Feature","properties":{"StationName":"TenquilleLa","NativeID":"1D06P","Elevation":"1680","JulyTmax":"144"},"geometry":{"type":"Point","coordinates":[-122.933,50.533]}},{"type":"Feature","properties":{"StationName":"GreatBear","NativeID":"1D15P","Elevation":"1660","JulyTmax":"179"},"geometry":{"type":"Point","coordinates":[-121.183,49.6]}},{"type":"Feature","properties":{"StationName":"ChilliwackR","NativeID":"1D17P","Elevation":"1600","JulyTmax":"153"},"geometry":{"type":"Point","coordinates":[-121.717,49.033]}},{"type":"Feature","properties":{"StationName":"SpuzzumCree","NativeID":"1D19P","Elevation":"1180","JulyTmax":"154"},"geometry":{"type":"Point","coordinates":[-121.65,49.667]}},{"type":"Feature","properties":{"StationName":"MountCook","NativeID":"1E02P","Elevation":"1550","JulyTmax":"155"},"geometry":{"type":"Point","coordinates":[-121.65,49.667]}},{"type":"Feature","properties":{"StationName":"AzureRiver","NativeID":"1E08P","Elevation":"1310","JulyTmax":"171"},"geometry":{"type":"Point","coordinates":[-119.717,52.617]}},{"type":"Feature","properties":{"StationName":"KostalLake","NativeID":"1E10P","Elevation":"1770","JulyTmax":"158"},"geometry":{"type":"Point","coordinates":[-120.033,52.2]}},{"type":"Feature","properties":{"StationName":"CookCreek","NativeID":"1E14P","Elevation":"1280","JulyTmax":"196"},"geometry":{"type":"Point","coordinates":[-119.3,52.167]}},{"type":"Feature","properties":{"StationName":"ParkMountai","NativeID":"1F03P","Elevation":"1890","JulyTmax":"162"},"geometry":{"type":"Point","coordinates":[-118.617,50.45]}},{"type":"Feature","properties":{"StationName":"Walloper","NativeID":"21091","Elevation":"1300","JulyTmax":"218"},"geometry":{"type":"Point","coordinates":[-120.47833,50.52861]}},{"type":"Feature","properties":{"StationName":"Barriere","NativeID":"21123","Elevation":"390","JulyTmax":"300"},"geometry":{"type":"Point","coordinates":[-120.13582,51.11271]}},{"type":"Feature","properties":{"StationName":"Malakwa","NativeID":"22096","Elevation":"335","JulyTmax":"294"},"geometry":{"type":"Point","coordinates":[-118.78861,50.93417]}},{"type":"Feature","properties":{"StationName":"Squilax","NativeID":"22123","Elevation":"366","JulyTmax":"300"},"geometry":{"type":"Point","coordinates":[-119.57111,50.87278]}},{"type":"Feature","properties":{"StationName":"KalamalkaLo","NativeID":"23097","Elevation":"570","JulyTmax":"292"},"geometry":{"type":"Point","coordinates":[-119.30607,50.2112]}},{"type":"Feature","properties":{"StationName":"ApexRoadsid","NativeID":"24126","Elevation":"1750","JulyTmax":"187"},"geometry":{"type":"Point","coordinates":[-119.9008,49.39693]}},{"type":"Feature","properties":{"StationName":"RedBluffs","NativeID":"24225","Elevation":"830","JulyTmax":"265"},"geometry":{"type":"Point","coordinates":[-120.62431,49.47619]}},{"type":"Feature","properties":{"StationName":"OliverNorth","NativeID":"24547","Elevation":"342","JulyTmax":"301"},"geometry":{"type":"Point","coordinates":[-119.5874,49.1574]}},{"type":"Feature","properties":{"StationName":"HelmerLake","NativeID":"25092","Elevation":"1385","JulyTmax":"211"},"geometry":{"type":"Point","coordinates":[-120.63661,50.32083]}},{"type":"Feature","properties":{"StationName":"LarsonHill","NativeID":"25093","Elevation":"1060","JulyTmax":"235"},"geometry":{"type":"Point","coordinates":[-120.935,49.83111]}},{"type":"Feature","properties":{"StationName":"CoquihallaS","NativeID":"25221","Elevation":"1230","JulyTmax":"203"},"geometry":{"type":"Point","coordinates":[-121.09948,49.5941]}},{"type":"Feature","properties":{"StationName":"GreatBear","NativeID":"25225","Elevation":"1710","JulyTmax":"172"},"geometry":{"type":"Point","coordinates":[-121.17805,49.59582]}},{"type":"Feature","properties":{"StationName":"LittleBear","NativeID":"25229","Elevation":"1660","JulyTmax":"186"},"geometry":{"type":"Point","coordinates":[-121.17801,49.59924]}},{"type":"Feature","properties":{"StationName":"OsoyoosWest","NativeID":"25602","Elevation":"295","JulyTmax":"307"},"geometry":{"type":"Point","coordinates":[-119.46275,49.011833]}},{"type":"Feature","properties":{"StationName":"OliverSouth","NativeID":"25672","Elevation":"292","JulyTmax":"305"},"geometry":{"type":"Point","coordinates":[-119.5766,49.1228]}},{"type":"Feature","properties":{"StationName":"BegbieSummi","NativeID":"28093","Elevation":"1127","JulyTmax":"237"},"geometry":{"type":"Point","coordinates":[-121.37083,51.47611]}},{"type":"Feature","properties":{"StationName":"PennaskSumm","NativeID":"29092","Elevation":"1700","JulyTmax":"191"},"geometry":{"type":"Point","coordinates":[-120.01336,49.90672]}},{"type":"Feature","properties":{"StationName":"MountRevels","NativeID":"2A06P","Elevation":"1830","JulyTmax":"159"},"geometry":{"type":"Point","coordinates":[-118.15,51.033]}},{"type":"Feature","properties":{"StationName":"MolsonCreek","NativeID":"2A21P","Elevation":"1980","JulyTmax":"153"},"geometry":{"type":"Point","coordinates":[-118.233,52.2333]}},{"type":"Feature","properties":{"StationName":"BarnesCreek","NativeID":"2B06P","Elevation":"1620","JulyTmax":"196"},"geometry":{"type":"Point","coordinates":[-118.35,50.0667]}},{"type":"Feature","properties":{"StationName":"St.LeonCre","NativeID":"2B08P","Elevation":"1800","JulyTmax":"164"},"geometry":{"type":"Point","coordinates":[-117.7,50.4333]}},{"type":"Feature","properties":{"StationName":"MorrisseyRi","NativeID":"2C09Q","Elevation":"1800","JulyTmax":"176"},"geometry":{"type":"Point","coordinates":[-114.967,49.45]}},{"type":"Feature","properties":{"StationName":"MoyieMounta","NativeID":"2C10P","Elevation":"1930","JulyTmax":"185"},"geometry":{"type":"Point","coordinates":[-115.767,49.25]}},{"type":"Feature","properties":{"StationName":"FloeLake","NativeID":"2C14P","Elevation":"2090","JulyTmax":"156"},"geometry":{"type":"Point","coordinates":[-116.133,51.05]}},{"type":"Feature","properties":{"StationName":"EastCreek","NativeID":"2D08P","Elevation":"2030","JulyTmax":"147"},"geometry":{"type":"Point","coordinates":[-116.933,50.6333]}},{"type":"Feature","properties":{"StationName":"RedfishCree","NativeID":"2D14P","Elevation":"2104","JulyTmax":"150"},"geometry":{"type":"Point","coordinates":[-117.083333,49.683333]}},{"type":"Feature","properties":{"StationName":"GranoCreek","NativeID":"2E07P","Elevation":"1860","JulyTmax":"171"},"geometry":{"type":"Point","coordinates":[-118.683,49.55]}},{"type":"Feature","properties":{"StationName":"MissionCree","NativeID":"2F05P","Elevation":"1780","JulyTmax":"190"},"geometry":{"type":"Point","coordinates":[-118.95,49.95]}},{"type":"Feature","properties":{"StationName":"BrendaMine","NativeID":"2F18P","Elevation":"1460","JulyTmax":"216"},"geometry":{"type":"Point","coordinates":[-120,49.8833]}},{"type":"Feature","properties":{"StationName":"BlackwallPe","NativeID":"2G03P","Elevation":"1940","JulyTmax":"171"},"geometry":{"type":"Point","coordinates":[-120.767,49.1]}},{"type":"Feature","properties":{"StationName":"Southridge","NativeID":"31321","Elevation":"1990","JulyTmax":"184"},"geometry":{"type":"Point","coordinates":[-117.16111,49.41778]}},{"type":"Feature","properties":{"StationName":"StrawberryP","NativeID":"32221","Elevation":"1600","JulyTmax":"223"},"geometry":{"type":"Point","coordinates":[-117.89664,49.20444]}},{"type":"Feature","properties":{"StationName":"AnarchistSu","NativeID":"33093","Elevation":"1097","JulyTmax":"253"},"geometry":{"type":"Point","coordinates":[-119.31361,49.00556]}},{"type":"Feature","properties":{"StationName":"Blueberry","NativeID":"33121","Elevation":"1570","JulyTmax":"232"},"geometry":{"type":"Point","coordinates":[-118.10936,49.15997]}},{"type":"Feature","properties":{"StationName":"PaulsonSumm","NativeID":"33122","Elevation":"1535","JulyTmax":"216"},"geometry":{"type":"Point","coordinates":[-118.05205,49.24368]}},{"type":"Feature","properties":{"StationName":"CoffeeCreek","NativeID":"34621","Elevation":"610","JulyTmax":"263"},"geometry":{"type":"Point","coordinates":[-116.90722,49.71444]}},{"type":"Feature","properties":{"StationName":"SummitLake","NativeID":"34791","Elevation":"780","JulyTmax":"268"},"geometry":{"type":"Point","coordinates":[-117.5925,50.1475]}},{"type":"Feature","properties":{"StationName":"CanalFlats","NativeID":"35091","Elevation":"870","JulyTmax":"282"},"geometry":{"type":"Point","coordinates":[-115.76111,49.99444]}},{"type":"Feature","properties":{"StationName":"Moyie","NativeID":"35092","Elevation":"975","JulyTmax":"266"},"geometry":{"type":"Point","coordinates":[-115.82889,49.32611]}},{"type":"Feature","properties":{"StationName":"Morrissey","NativeID":"36124","Elevation":"960","JulyTmax":"272"},"geometry":{"type":"Point","coordinates":[-115.02306,49.39]}},{"type":"Feature","properties":{"StationName":"VermillionP","NativeID":"37091","Elevation":"870","JulyTmax":"273"},"geometry":{"type":"Point","coordinates":[-116.17647,50.73828]}},{"type":"Feature","properties":{"StationName":"Nordic2","NativeID":"37092","Elevation":"1041","JulyTmax":"242"},"geometry":{"type":"Point","coordinates":[-117.42179,51.507]}},{"type":"Feature","properties":{"StationName":"KickingHors","NativeID":"37121","Elevation":"1844","JulyTmax":"188"},"geometry":{"type":"Point","coordinates":[-116.87847,51.31514]}},{"type":"Feature","properties":{"StationName":"KickingHors","NativeID":"37122","Elevation":"1440","JulyTmax":"238"},"geometry":{"type":"Point","coordinates":[-116.88467,51.31056]}},{"type":"Feature","properties":{"StationName":"3ValleyRem","NativeID":"38121","Elevation":"1165","JulyTmax":"211"},"geometry":{"type":"Point","coordinates":[-118.44503,50.92666]}},{"type":"Feature","properties":{"StationName":"Clanwilliam","NativeID":"38124","Elevation":"610","JulyTmax":"254"},"geometry":{"type":"Point","coordinates":[-118.37777,50.96248]}},{"type":"Feature","properties":{"StationName":"CorbinPass","NativeID":"38222","Elevation":"1615","JulyTmax":"193"},"geometry":{"type":"Point","coordinates":[-117.77111,51.19333]}},{"type":"Feature","properties":{"StationName":"AlbertCanyo","NativeID":"38227","Elevation":"870","JulyTmax":"255"},"geometry":{"type":"Point","coordinates":[-117.76453,51.17986]}},{"type":"Feature","properties":{"StationName":"CaribouRidg","NativeID":"38323","Elevation":"1740","JulyTmax":"183"},"geometry":{"type":"Point","coordinates":[-118.46167,51.51833]}},{"type":"Feature","properties":{"StationName":"FredLaingR","NativeID":"38325","Elevation":"1080","JulyTmax":"235"},"geometry":{"type":"Point","coordinates":[-118.57083,52.04028]}},{"type":"Feature","properties":{"StationName":"Mica","NativeID":"38326","Elevation":"565","JulyTmax":"256"},"geometry":{"type":"Point","coordinates":[-118.56222,51.95778]}},{"type":"Feature","properties":{"StationName":"GalenaPass","NativeID":"38424","Elevation":"1570","JulyTmax":"209"},"geometry":{"type":"Point","coordinates":[-117.755,50.70806]}},{"type":"Feature","properties":{"StationName":"KootenayPas","NativeID":"39121","Elevation":"1780","JulyTmax":"195"},"geometry":{"type":"Point","coordinates":[-117.04,49.05806]}},{"type":"Feature","properties":{"StationName":"NostetukoRi","NativeID":"3A22P","Elevation":"1500","JulyTmax":"165"},"geometry":{"type":"Point","coordinates":[-124.45,51.25]}},{"type":"Feature","properties":{"StationName":"UpperMosley","NativeID":"3A24P","Elevation":"1650","JulyTmax":"169"},"geometry":{"type":"Point","coordinates":[-124.617,51.7833]}},{"type":"Feature","properties":{"StationName":"UpperSquami","NativeID":"3A25P","Elevation":"1340","JulyTmax":"166"},"geometry":{"type":"Point","coordinates":[-123.433,50.15]}},{"type":"Feature","properties":{"StationName":"WolfRiver(","NativeID":"3B17P","Elevation":"1490","JulyTmax":"171"},"geometry":{"type":"Point","coordinates":[-125.667,49.7]}},{"type":"Feature","properties":{"StationName":"JumpCreek","NativeID":"3B23P","Elevation":"1160","JulyTmax":"162"},"geometry":{"type":"Point","coordinates":[-124.283,48.9667]}},{"type":"Feature","properties":{"StationName":"BurntBridge","NativeID":"3C08P","Elevation":"1330","JulyTmax":"175"},"geometry":{"type":"Point","coordinates":[-126.25,52.4833]}},{"type":"Feature","properties":{"StationName":"WestTwinCr","NativeID":"41091","Elevation":"850","JulyTmax":"228"},"geometry":{"type":"Point","coordinates":[-120.515,53.44014]}},{"type":"Feature","properties":{"StationName":"LinkCreek","NativeID":"41092","Elevation":"730","JulyTmax":"225"},"geometry":{"type":"Point","coordinates":[-122.65694,55.50111]}},{"type":"Feature","properties":{"StationName":"WhiskersPoi","NativeID":"41093","Elevation":"710","JulyTmax":"233"},"geometry":{"type":"Point","coordinates":[-122.9275,54.90389]}},{"type":"Feature","properties":{"StationName":"Tamarack","NativeID":"41094","Elevation":"715","JulyTmax":"245"},"geometry":{"type":"Point","coordinates":[-123.13222,53.83139]}},{"type":"Feature","properties":{"StationName":"DragonLake","NativeID":"42091","Elevation":"659","JulyTmax":"266"},"geometry":{"type":"Point","coordinates":[-122.43881,52.93078]}},{"type":"Feature","properties":{"StationName":"SlidingMoun","NativeID":"42121","Elevation":"1675","JulyTmax":"188"},"geometry":{"type":"Point","coordinates":[-121.47889,53.15667]}},{"type":"Feature","properties":{"StationName":"BradenRoad","NativeID":"43091","Elevation":"760","JulyTmax":"231"},"geometry":{"type":"Point","coordinates":[-120.76256,55.7815]}},{"type":"Feature","properties":{"StationName":"73Mile","NativeID":"44091","Elevation":"850","JulyTmax":"222"},"geometry":{"type":"Point","coordinates":[-121.25264,56.54194]}},{"type":"Feature","properties":{"StationName":"ChappelCree","NativeID":"46094","Elevation":"786","JulyTmax":"258"},"geometry":{"type":"Point","coordinates":[-119.18008,52.38556]}},{"type":"Feature","properties":{"StationName":"RobsonRoads","NativeID":"46127","Elevation":"944","JulyTmax":"238"},"geometry":{"type":"Point","coordinates":[-119.2003,53.03303]}},{"type":"Feature","properties":{"StationName":"Lee'sHill","NativeID":"47091","Elevation":"1090","JulyTmax":"239"},"geometry":{"type":"Point","coordinates":[-122.98586,51.93747]}},{"type":"Feature","properties":{"StationName":"Enterprise","NativeID":"47092","Elevation":"730","JulyTmax":"261"},"geometry":{"type":"Point","coordinates":[-121.79278,51.96139]}},{"type":"Feature","properties":{"StationName":"HeckmanPass","NativeID":"47122","Elevation":"975","JulyTmax":"220"},"geometry":{"type":"Point","coordinates":[-125.87449,52.4347]}},{"type":"Feature","properties":{"StationName":"PinePass","NativeID":"4A02P","Elevation":"1400","JulyTmax":"158"},"geometry":{"type":"Point","coordinates":[-122.633,55.35]}},{"type":"Feature","properties":{"StationName":"PulpitLake","NativeID":"4A09P","Elevation":"1310","JulyTmax":"173"},"geometry":{"type":"Point","coordinates":[-126.783,57.5333]}},{"type":"Feature","properties":{"StationName":"KwadachaRiv","NativeID":"4A27P","Elevation":"1620","JulyTmax":"159"},"geometry":{"type":"Point","coordinates":[-125.067,57.6167]}},{"type":"Feature","properties":{"StationName":"AikenLake","NativeID":"4A30P","Elevation":"1040","JulyTmax":"195"},"geometry":{"type":"Point","coordinates":[-125.733,56.45]}},{"type":"Feature","properties":{"StationName":"LuLake","NativeID":"4B15P","Elevation":"1310","JulyTmax":"158"},"geometry":{"type":"Point","coordinates":[-126.3,54.2]}},{"type":"Feature","properties":{"StationName":"ShedinCreek","NativeID":"4B16P","Elevation":"1480","JulyTmax":"141"},"geometry":{"type":"Point","coordinates":[-127.7,55.85]}},{"type":"Feature","properties":{"StationName":"TsaiCreek","NativeID":"4B17P","Elevation":"1360","JulyTmax":"139"},"geometry":{"type":"Point","coordinates":[-127.667,54.65]}},{"type":"Feature","properties":{"StationName":"Cedar-Kiteen","NativeID":"4B18P","Elevation":"885","JulyTmax":"159"},"geometry":{"type":"Point","coordinates":[-128.717,55.15]}},{"type":"Feature","properties":{"StationName":"DeadwoodRiv","NativeID":"4C09P","Elevation":"1300","JulyTmax":"181"},"geometry":{"type":"Point","coordinates":[-128.317,59.25]}},{"type":"Feature","properties":{"StationName":"ForrestKerr","NativeID":"4D08P","Elevation":"560","JulyTmax":"191"},"geometry":{"type":"Point","coordinates":[-130.783,56.95]}},{"type":"Feature","properties":{"StationName":"TumekaCreek","NativeID":"4D10P","Elevation":"1220","JulyTmax":"161"},"geometry":{"type":"Point","coordinates":[-129.717,57.2333]}},{"type":"Feature","properties":{"StationName":"KinaskanLak","NativeID":"4D11P","Elevation":"1020","JulyTmax":"166"},"geometry":{"type":"Point","coordinates":[-130.25,57.5667]}},{"type":"Feature","properties":{"StationName":"WadeLake","NativeID":"4D14P","Elevation":"1370","JulyTmax":"155"},"geometry":{"type":"Point","coordinates":[-128.9,58.1833]}},{"type":"Feature","properties":{"StationName":"WindyPoint","NativeID":"51123","Elevation":"1035","JulyTmax":"159"},"geometry":{"type":"Point","coordinates":[-129.51522,56.11017]}},{"type":"Feature","properties":{"StationName":"WindyPoint","NativeID":"51124","Elevation":"1490","JulyTmax":"115"},"geometry":{"type":"Point","coordinates":[-129.52642,56.11714]}},{"type":"Feature","properties":{"StationName":"Disraeli","NativeID":"51125","Elevation":"2000","JulyTmax":"115"},"geometry":{"type":"Point","coordinates":[-129.75167,56.09972]}},{"type":"Feature","properties":{"StationName":"Endgoal","NativeID":"51126","Elevation":"370","JulyTmax":"230"},"geometry":{"type":"Point","coordinates":[-129.51206,56.09956]}},{"type":"Feature","properties":{"StationName":"SummitSluff","NativeID":"51127","Elevation":"540","JulyTmax":"206"},"geometry":{"type":"Point","coordinates":[-129.65389,56.10631]}},{"type":"Feature","properties":{"StationName":"KettleHole","NativeID":"51128","Elevation":"440","JulyTmax":"195"},"geometry":{"type":"Point","coordinates":[-129.63297,56.10347]}},{"type":"Feature","properties":{"StationName":"LegateCreek","NativeID":"52091","Elevation":"130","JulyTmax":"245"},"geometry":{"type":"Point","coordinates":[-128.26111,54.74639]}},{"type":"Feature","properties":{"StationName":"Rosswood","NativeID":"52092","Elevation":"280","JulyTmax":"240"},"geometry":{"type":"Point","coordinates":[-128.89361,54.93722]}},{"type":"Feature","properties":{"StationName":"OnionLake","NativeID":"52093","Elevation":"220","JulyTmax":"226"},"geometry":{"type":"Point","coordinates":[-128.53778,54.30222]}},{"type":"Feature","properties":{"StationName":"KasiksHigh","NativeID":"52322","Elevation":"1435","JulyTmax":"133"},"geometry":{"type":"Point","coordinates":[-129.44333,54.30161]}},{"type":"Feature","properties":{"StationName":"KasiksLow","NativeID":"52325","Elevation":"732","JulyTmax":"179"},"geometry":{"type":"Point","coordinates":[-129.41833,54.30361]}},{"type":"Feature","properties":{"StationName":"Salvus","NativeID":"52326","Elevation":"10","JulyTmax":"224"},"geometry":{"type":"Point","coordinates":[-129.35361,54.31444]}},{"type":"Feature","properties":{"StationName":"RainbowSumm","NativeID":"52327","Elevation":"110","JulyTmax":"201"},"geometry":{"type":"Point","coordinates":[-130.07806,54.22944]}},{"type":"Feature","properties":{"StationName":"Iknouk","NativeID":"52521","Elevation":"860","JulyTmax":"163"},"geometry":{"type":"Point","coordinates":[-129.77636,55.01033]}},{"type":"Feature","properties":{"StationName":"SnowbankHig","NativeID":"53121","Elevation":"1675","JulyTmax":"100"},"geometry":{"type":"Point","coordinates":[-129.98333,56.76389]}},{"type":"Feature","properties":{"StationName":"SnowbankMid","NativeID":"53122","Elevation":"1065","JulyTmax":"173"},"geometry":{"type":"Point","coordinates":[-129.97253,56.77667]}},{"type":"Feature","properties":{"StationName":"JadeCity","NativeID":"53221","Elevation":"940","JulyTmax":"207"},"geometry":{"type":"Point","coordinates":[-129.65722,59.24917]}},{"type":"Feature","properties":{"StationName":"Stearns","NativeID":"55091","Elevation":"719","JulyTmax":"237"},"geometry":{"type":"Point","coordinates":[-125.53639,54.19167]}},{"type":"Feature","properties":{"StationName":"Cochrane","NativeID":"63093","Elevation":"115","JulyTmax":"241"},"geometry":{"type":"Point","coordinates":[-124.61611,49.37056]}},{"type":"Feature","properties":{"StationName":"TsitikaSumm","NativeID":"64091","Elevation":"436","JulyTmax":"222"},"geometry":{"type":"Point","coordinates":[-126.35528,50.2825]}},{"type":"Feature","properties":{"StationName":"NorthCourte","NativeID":"64093","Elevation":"100","JulyTmax":"254"},"geometry":{"type":"Point","coordinates":[-125.19006,49.83003]}},{"type":"Feature","properties":{"StationName":"POINTBISHOP","NativeID":"PBPA2","Elevation":"3","JulyTmax":"155"},"geometry":{"type":"Point","coordinates":[-134.1478,58.2025]}},{"type":"Feature","properties":{"StationName":"Glenmore","NativeID":"SBC10","Elevation":"439","JulyTmax":"285"},"geometry":{"type":"Point","coordinates":[-119.421042,49.912417]}},{"type":"Feature","properties":{"StationName":"KelownaEast","NativeID":"SBC12","Elevation":"416","JulyTmax":"290"},"geometry":{"type":"Point","coordinates":[-119.421542,49.872875]}},{"type":"Feature","properties":{"StationName":"KelownaSout","NativeID":"SBC13","Elevation":"419","JulyTmax":"278"},"geometry":{"type":"Point","coordinates":[-119.446385,49.838374]}},{"type":"Feature","properties":{"StationName":"O.K.Landing","NativeID":"SBC14","Elevation":"437","JulyTmax":"281"},"geometry":{"type":"Point","coordinates":[-119.342583,50.257171]}},{"type":"Feature","properties":{"StationName":"Oyama","NativeID":"SBC15","Elevation":"491","JulyTmax":"277"},"geometry":{"type":"Point","coordinates":[-119.367128,50.090526]}},{"type":"Feature","properties":{"StationName":"VernonNorth","NativeID":"SBC19","Elevation":"509","JulyTmax":"286"},"geometry":{"type":"Point","coordinates":[-119.233686,50.294251]}},{"type":"Feature","properties":{"StationName":"Westbank","NativeID":"SBC20","Elevation":"391","JulyTmax":"272"},"geometry":{"type":"Point","coordinates":[-119.624523,49.821304]}},{"type":"Feature","properties":{"StationName":"WinfieldNor","NativeID":"SBC22","Elevation":"468","JulyTmax":"284"},"geometry":{"type":"Point","coordinates":[-119.414536,50.063203]}},{"type":"Feature","properties":{"StationName":"WinfieldSou","NativeID":"SBC23","Elevation":"525","JulyTmax":"286"},"geometry":{"type":"Point","coordinates":[-119.424527,50.041193]}},{"type":"Feature","properties":{"StationName":"Cawston","NativeID":"SBC24","Elevation":"414","JulyTmax":"300"},"geometry":{"type":"Point","coordinates":[-119.74325,49.182528]}},{"type":"Feature","properties":{"StationName":"Keremeos","NativeID":"SBC25","Elevation":"414","JulyTmax":"300"},"geometry":{"type":"Point","coordinates":[-119.847531,49.202333]}},{"type":"Feature","properties":{"StationName":"PentictonSo","NativeID":"SBC32","Elevation":"374","JulyTmax":"289"},"geometry":{"type":"Point","coordinates":[-119.56442,49.498417]}},{"type":"Feature","properties":{"StationName":"Summerland","NativeID":"SBC34","Elevation":"492","JulyTmax":"279"},"geometry":{"type":"Point","coordinates":[-119.684639,49.613667]}},{"type":"Feature","properties":{"StationName":"SummerlandS","NativeID":"SBC35","Elevation":"459","JulyTmax":"271"},"geometry":{"type":"Point","coordinates":[-119.65425,49.585028]}},{"type":"Feature","properties":{"StationName":"DouglasLake","NativeID":"do107","Elevation":"951","JulyTmax":"232"},"geometry":{"type":"Point","coordinates":[-120.024722,50.204722]}},{"type":"Feature","properties":{"StationName":"Quilchena","NativeID":"qu107","Elevation":"316","JulyTmax":"244"},"geometry":{"type":"Point","coordinates":[-120.505,50.179722]}},{"type":"Feature","properties":{"StationName":"SpiusCreek","NativeID":"sp107","Elevation":"530","JulyTmax":"244"},"geometry":{"type":"Point","coordinates":[-121.025833,50.141111]}},{"type":"Feature","properties":{"StationName":"SunshineVal","NativeID":"su107","Elevation":"560","JulyTmax":"209"},"geometry":{"type":"Point","coordinates":[-120.933333,50.145833]}},{"type":"Feature","properties":{"StationName":"CHARTER","NativeID":"101006","Elevation":"424","JulyTmax":"232"},"geometry":{"type":"Point","coordinates":[-123.923611,48.809722]}},{"type":"Feature","properties":{"StationName":"SAHTLAM","NativeID":"101008","Elevation":"201","JulyTmax":"239"},"geometry":{"type":"Point","coordinates":[-123.893333,48.784722]}},{"type":"Feature","properties":{"StationName":"SHAWNLKCFS","NativeID":"101009","Elevation":"335","JulyTmax":"228"},"geometry":{"type":"Point","coordinates":[-123.720833,48.6375]}},{"type":"Feature","properties":{"StationName":"SHAWNIGANLK","NativeID":"101023","Elevation":"343","JulyTmax":"236"},"geometry":{"type":"Point","coordinates":[-123.679167,48.621389]}},{"type":"Feature","properties":{"StationName":"NITINATFP","NativeID":"101024","Elevation":"152","JulyTmax":"243"},"geometry":{"type":"Point","coordinates":[-124.601667,48.864167]}},{"type":"Feature","properties":{"StationName":"MAPLEBAY","NativeID":"101317","Elevation":"12","JulyTmax":"234"},"geometry":{"type":"Point","coordinates":[-123.591111,48.820556]}},{"type":"Feature","properties":{"StationName":"ZANATTAGRAP","NativeID":"101322","Elevation":"105","JulyTmax":"238"},"geometry":{"type":"Point","coordinates":[-123.749167,48.754444]}},{"type":"Feature","properties":{"StationName":"FEINCK","NativeID":"101402","Elevation":"387","JulyTmax":"205"},"geometry":{"type":"Point","coordinates":[-124.048611,48.451389]}},{"type":"Feature","properties":{"StationName":"SANJUAN","NativeID":"101405","Elevation":"122","JulyTmax":"223"},"geometry":{"type":"Point","coordinates":[-124.078889,48.585]}},{"type":"Feature","properties":{"StationName":"MEADECK","NativeID":"101413","Elevation":"491","JulyTmax":"201"},"geometry":{"type":"Point","coordinates":[-124.168056,48.888611]}},{"type":"Feature","properties":{"StationName":"COTTONWOODC","NativeID":"101414","Elevation":"291","JulyTmax":"239"},"geometry":{"type":"Point","coordinates":[-124.243611,48.902778]}},{"type":"Feature","properties":{"StationName":"HARRISCK","NativeID":"101415","Elevation":"107","JulyTmax":"236"},"geometry":{"type":"Point","coordinates":[-124.253056,48.634722]}},{"type":"Feature","properties":{"StationName":"CASSIDY","NativeID":"102001","Elevation":"201","JulyTmax":"238"},"geometry":{"type":"Point","coordinates":[-123.936389,49.026667]}},{"type":"Feature","properties":{"StationName":"CHRISTIERD","NativeID":"102003","Elevation":"316","JulyTmax":"212"},"geometry":{"type":"Point","coordinates":[-123.884444,48.993333]}},{"type":"Feature","properties":{"StationName":"EXTENSION","NativeID":"102008","Elevation":"453","JulyTmax":"213"},"geometry":{"type":"Point","coordinates":[-124.034722,49.109444]}},{"type":"Feature","properties":{"StationName":"MCNAUGHTON","NativeID":"102010","Elevation":"419","JulyTmax":"210"},"geometry":{"type":"Point","coordinates":[-124.810556,49.424444]}},{"type":"Feature","properties":{"StationName":"MERRILLLAKE","NativeID":"102012","Elevation":"299","JulyTmax":"226"},"geometry":{"type":"Point","coordinates":[-125.575833,50.060278]}},{"type":"Feature","properties":{"StationName":"AMORLAKE","NativeID":"102014","Elevation":"269","JulyTmax":"220"},"geometry":{"type":"Point","coordinates":[-125.576667,50.176111]}},{"type":"Feature","properties":{"StationName":"SNAKEHEAD","NativeID":"102016","Elevation":"293","JulyTmax":"208"},"geometry":{"type":"Point","coordinates":[-125.481389,49.951944]}},{"type":"Feature","properties":{"StationName":"JOHNHART","NativeID":"102017","Elevation":"195","JulyTmax":"227"},"geometry":{"type":"Point","coordinates":[-125.400556,50.043056]}},{"type":"Feature","properties":{"StationName":"MENZIESBAY","NativeID":"102018","Elevation":"143","JulyTmax":"229"},"geometry":{"type":"Point","coordinates":[-125.399444,50.110278]}},{"type":"Feature","properties":{"StationName":"MORTELAKE","NativeID":"102020","Elevation":"183","JulyTmax":"228"},"geometry":{"type":"Point","coordinates":[-125.308056,50.1525]}},{"type":"Feature","properties":{"StationName":"ELKBAY","NativeID":"102022","Elevation":"266","JulyTmax":"217"},"geometry":{"type":"Point","coordinates":[-125.439167,50.257778]}},{"type":"Feature","properties":{"StationName":"FRENCHCREEK","NativeID":"102025","Elevation":"488","JulyTmax":"208"},"geometry":{"type":"Point","coordinates":[-124.500556,49.257222]}},{"type":"Feature","properties":{"StationName":"BIGTREECK","NativeID":"102026","Elevation":"146","JulyTmax":"222"},"geometry":{"type":"Point","coordinates":[-125.710278,50.221389]}},{"type":"Feature","properties":{"StationName":"TSABLERFP","NativeID":"102027","Elevation":"238","JulyTmax":"236"},"geometry":{"type":"Point","coordinates":[-124.918333,49.526944]}},{"type":"Feature","properties":{"StationName":"BONANZA","NativeID":"102034","Elevation":"416","JulyTmax":"191"},"geometry":{"type":"Point","coordinates":[-126.716944,50.298333]}},{"type":"Feature","properties":{"StationName":"ANDERSONLK","NativeID":"102035","Elevation":"521","JulyTmax":"202"},"geometry":{"type":"Point","coordinates":[-125.173056,49.736667]}},{"type":"Feature","properties":{"StationName":"WESTTHURLOW","NativeID":"102037","Elevation":"125","JulyTmax":"198"},"geometry":{"type":"Point","coordinates":[-125.694167,50.400556]}},{"type":"Feature","properties":{"StationName":"OYSTER","NativeID":"102046","Elevation":"195","JulyTmax":"227"},"geometry":{"type":"Point","coordinates":[-125.301667,49.866944]}},{"type":"Feature","properties":{"StationName":"LOOKOUTLOW","NativeID":"102127","Elevation":"823","JulyTmax":"191"},"geometry":{"type":"Point","coordinates":[-123.986389,48.947222]}},{"type":"Feature","properties":{"StationName":"LOOKOUTTOP","NativeID":"102128","Elevation":"1113","JulyTmax":"167"},"geometry":{"type":"Point","coordinates":[-124.001944,48.945556]}},{"type":"Feature","properties":{"StationName":"MTCAIN12SS","NativeID":"102302","Elevation":"390","JulyTmax":"211"},"geometry":{"type":"Point","coordinates":[-126.394722,50.186667]}},{"type":"Feature","properties":{"StationName":"MTCAIN12NS","NativeID":"102303","Elevation":"415","JulyTmax":"201"},"geometry":{"type":"Point","coordinates":[-126.396944,50.177222]}},{"type":"Feature","properties":{"StationName":"MTCAIN20S","NativeID":"102306","Elevation":"701","JulyTmax":"202"},"geometry":{"type":"Point","coordinates":[-126.388889,50.192778]}},{"type":"Feature","properties":{"StationName":"MTCAIN30S","NativeID":"102308","Elevation":"893","JulyTmax":"177"},"geometry":{"type":"Point","coordinates":[-126.368611,50.202222]}},{"type":"Feature","properties":{"StationName":"MTCAIN40S","NativeID":"102310","Elevation":"1171","JulyTmax":"154"},"geometry":{"type":"Point","coordinates":[-126.362778,50.227778]}},{"type":"Feature","properties":{"StationName":"CRESTVB","NativeID":"102325","Elevation":"280","JulyTmax":"225"},"geometry":{"type":"Point","coordinates":[-125.8075,49.856944]}},{"type":"Feature","properties":{"StationName":"CREST1500","NativeID":"102326","Elevation":"457","JulyTmax":"232"},